Severity,Start_Time,End_Time,Start_Lat,Start_Lng,End_Lat,End_Lng,Distance(mi),Description,Number,Street,Side,City,County,State,Zipcode,Country,Timezone,Airport_Code,Weather_Timestamp,Temperature(F),Wind_Chill(F),Humidity(%),Pressure(in),Visibility(mi),Wind_Direction,Wind_Speed(mph),Precipitation(in),Weather_Condition,Amenity,Bump,Crossing,Give_Way,Junction,No_Exit,Railway,Roundabout,Station,Stop,Traffic_Calming,Traffic_Signal,Turning_Loop,Sunrise_Sunset,Civil_Twilight,Nautical_Twilight,Astronomical_Twilight
2,21-05-19 8:29,21-05-19 9:29,34.808868,-82.269157,34.808868,-82.269157,0,Accident on Tanner Rd at Pennbrooke Ln.,439,Tanner Rd,R,Greenville,Greenville,SC,29607-6027,US,US/Eastern,KGMU,21-05-19 8:53,76,76,52,28.91,10,N,7,0,Fair,FALSE,FALSE,FALSE,FALSE,FALSE,FALSE,FALSE,FALSE,FALSE,FALSE,FALSE,FALSE,FALSE,Day,Day,Day,Day
2,07-10-19 17:43,07-10-19 19:42,35.09008,-80.74556,35.09008,-80.74556,0,Accident on Houston Branch Rd at Providence Branch Ln.,3299,Providence Branch Ln,R,Charlotte,Mecklenburg,NC,28270-8560,US,US/Eastern,KEQY,07-10-19 17:53,76,76,62,29.3,10,VAR,3,0,Cloudy,FALSE,FALSE,FALSE,FALSE,FALSE,FALSE,FALSE,FALSE,FALSE,FALSE,FALSE,FALSE,FALSE,Day,Day,Day,Day
2,13-12-20 21:53,13-12-20 22:44,37.14573,-121.985052,37.16585,-121.988062,1.4,Stationary traffic on CA-17 from Summit Rd (CA-17) to Idylwild Rd (CA-17) due to accident.,nan,Santa Cruz Hwy,R,Los Gatos,Santa Clara,CA,95033,US,US/Pacific,KSJC,13-12-20 21:53,51,51,80,30.17,10,W,6,0,Fair,FALSE,FALSE,FALSE,FALSE,FALSE,FALSE,FALSE,FALSE,FALSE,FALSE,FALSE,FALSE,FALSE,Night,Night,Night,Night
2,17-04-18 16:51,17-04-18 17:50,39.11039,-119.773781,39.11039,-119.773781,0,Accident on US-395 Southbound at Topsy Ln.,nan,US Highway 395 S,R,Carson City,Douglas,NV,89705,US,US/Pacific,KCXP,17-04-18 16:55,53.6,nan,16,30.16,10,SSW,4.6,nan,Clear,FALSE,FALSE,FALSE,FALSE,FALSE,FALSE,FALSE,FALSE,FALSE,FALSE,FALSE,TRUE,FALSE,Day,Day,Day,Day
3,31-08-16 17:40,31-08-16 18:10,26.102942,-80.265091,26.102942,-80.265091,0,Accident on I-595 Westbound at Exit 4 / Pine Island Rd.,nan,I-595 W,R,Fort Lauderdale,Broward,FL,33324,US,US/Eastern,KHWO,31-08-16 17:53,84.2,nan,84,29.92,10,SSE,13.8,nan,Overcast,FALSE,FALSE,FALSE,FALSE,TRUE,FALSE,FALSE,FALSE,FALSE,FALSE,FALSE,TRUE,FALSE,Day,Day,Day,Day
3,17-10-18 16:40,17-10-18 17:10,35.34824,-80.847221,35.34824,-80.847221,0,Three lanes blocked due to accident on I-77 Northbound at Exit 18 NC-24 W.T. Harris Blvd.,nan,W W.T. Harris Blvd,R,Charlotte,Mecklenburg,NC,28269,US,US/Eastern,KJQF,17-10-18 16:58,73.4,nan,33,30.17,10,NNW,6.9,nan,Clear,FALSE,FALSE,FALSE,FALSE,FALSE,FALSE,FALSE,FALSE,FALSE,FALSE,FALSE,FALSE,FALSE,Day,Day,Day,Day
4,12-12-19 9:48,12-12-19 10:18,39.52397,-107.777,39.56578,-107.51695,14.153,Closed between CO-13/Taughenbaugh Blvd/Exit 90 and CR-240/Exit 105 - Road closed due to accident.,nan,I-70 E,R,Rifle,Garfield,CO,81650,US,US/Mountain,KRIL,12-12-19 9:46,28,28,88,24.67,2,NE,3,0,Light Snow,FALSE,FALSE,FALSE,FALSE,FALSE,FALSE,FALSE,FALSE,FALSE,FALSE,FALSE,FALSE,FALSE,Day,Day,Day,Day
2,21-12-19 23:59,22-12-19 0:32,34.034017,-118.026972,34.034017,-118.026972,0,At CA-60/Pomona Fwy - Accident.,nan,CA-60 W,R,Whittier,Los Angeles,CA,90601,US,US/Pacific,KEMT,21-12-19 23:53,55,55,40,29.86,10,E,5,0,Fair,FALSE,FALSE,FALSE,FALSE,FALSE,FALSE,FALSE,FALSE,FALSE,FALSE,FALSE,FALSE,FALSE,Night,Night,Night,Night
2,23-05-18 16:50,23-05-18 22:50,35.86349,-86.83168,35.84948,-86.83253,0.969,At TN-248/Peytonsville Rd/Exit 61 - Accident. Right lane blocked.,425, Old Peytonsville Rd,R,Franklin,Williamson,TN,37064-5029,US,US/Central,KBNA,23-05-18 16:53,87.1,nan,43,30.04,10,NE,8.1,nan,Mostly Cloudy,FALSE,FALSE,FALSE,FALSE,FALSE,FALSE,FALSE,FALSE,FALSE,FALSE,FALSE,FALSE,FALSE,Day,Day,Day,Day
2,30-01-19 8:44,30-01-19 9:14,34.42633,-118.5851,34.42022,-118.5819,0.46,At Magic Mountain Pky - Accident. Hard shoulder blocked.,nan,Golden State Fwy S,R,Valencia,Los Angeles,CA,91355,US,US/Pacific,K3A6,30-01-19 8:39,57,57,77,29.08,5,VAR,5,0,Mostly Cloudy,FALSE,FALSE,FALSE,FALSE,FALSE,FALSE,FALSE,FALSE,FALSE,FALSE,FALSE,FALSE,FALSE,Day,Day,Day,Day
2,20-12-19 8:20,20-12-19 10:05,28.021709,-82.203583,28.021709,-82.203583,0,Restrictions due to accident on US-92 at Bethlehem Rd.,4499,Bethlehem Rd,L,Dover,Hillsborough,FL,33527-3948,US,US/Eastern,KPCM,20-12-19 8:50,57,57,88,30.05,10,NE,6,0,Fair,FALSE,FALSE,FALSE,FALSE,FALSE,FALSE,FALSE,FALSE,FALSE,FALSE,FALSE,FALSE,FALSE,Day,Day,Day,Day
2,17-12-20 16:38,17-12-20 19:36,40.91221,-73.875099,40.916901,-73.87144,0.376,Crash on I-87 - NYS Thruway southbound at After Exit 1 (I-87) - Yonkers - Hall Place starting 8:38 AM 12/17/2020 [CARS CAD-203520172],nan,I-87 N,R,Yonkers,Westchester,NY,10704,US,US/Eastern,KLGA,17-12-20 16:51,32,21,61,30,10,NNW,16,0,Fair,FALSE,FALSE,FALSE,FALSE,FALSE,FALSE,FALSE,FALSE,FALSE,FALSE,FALSE,FALSE,FALSE,Night,Day,Day,Day
2,19-04-18 12:48,19-04-18 18:48,32.86693,-96.66617,32.86156,-96.65769,0.616,At Northwest Hwy/Exit 11 - Accident.,nan,LBJ Fwy E,R,Garland,Dallas,TX,75041,US,US/Central,KHQZ,19-04-18 12:50,64.4,nan,32,30.37,10,NNW,12.7,nan,Clear,FALSE,FALSE,FALSE,FALSE,FALSE,FALSE,FALSE,FALSE,FALSE,FALSE,FALSE,FALSE,FALSE,Day,Day,Day,Day
2,16-08-17 17:26,16-08-17 17:55,32.265141,-110.903587,32.265141,-110.903587,0,Accident on Fort Lowell Rd at Avenida del Clarin.,4198,E Fort Lowell Rd,R,Tucson,Pima,AZ,85712-1013,US,US/Mountain,KDMA,16-08-17 16:58,97.7,nan,16,29.8,10,West,4.6,nan,Clear,FALSE,FALSE,FALSE,FALSE,FALSE,FALSE,FALSE,FALSE,FALSE,FALSE,FALSE,FALSE,FALSE,Day,Day,Day,Day
3,27-05-20 19:45,27-05-20 20:15,41.05982,-74.25092,41.02848,-74.25178,2.166,At I-287/W Oakland Ave - Accident.,nan,Skyline Dr,R,Oakland,Bergen,NJ,7436,US,US/Eastern,KCDW,27-05-20 19:53,72,72,71,30,10,S,6,0,Mostly Cloudy,FALSE,FALSE,FALSE,FALSE,FALSE,FALSE,FALSE,FALSE,FALSE,FALSE,FALSE,FALSE,FALSE,Day,Day,Day,Day
2,11-04-19 16:35,11-04-19 18:59,29.723339,-95.497337,29.723339,-95.497337,0,Accident on Westpark Dr at 14th St.,6397,Westpark Dr,L,Houston,Harris,TX,77057-7203,US,US/Central,KMCJ,11-04-19 16:53,77,77,71,29.6,10,SSW,8,0,Cloudy,FALSE,FALSE,FALSE,FALSE,FALSE,FALSE,FALSE,FALSE,FALSE,FALSE,FALSE,TRUE,FALSE,Day,Day,Day,Day
2,09-07-16 14:54,09-07-16 15:54,34.103172,-118.249969,34.103172,-118.249969,0,Accident on CA-2 Southbound at Exit 13 I-5.,nan,CA-2 S,R,Los Angeles,Los Angeles,CA,90039,US,US/Pacific,KCQT,09-07-16 14:47,78.1,nan,60,29.99,10,Variable,3.5,nan,Clear,FALSE,FALSE,FALSE,FALSE,FALSE,FALSE,FALSE,FALSE,FALSE,FALSE,FALSE,FALSE,FALSE,Day,Day,Day,Day
2,21-11-20 16:32,21-11-20 20:18,34.186595,-117.439427,34.185871,-117.439039,0.055,Incident on SIERRA AVE near LYTLE CREEK RD Expect delays.,3738, Sierra Ave,R,Fontana,San Bernardino,CA,92336-1108,US,US/Pacific,KONT,21-11-20 16:53,75,75,26,28.98,9,WSW,6,0,Mostly Cloudy,FALSE,FALSE,FALSE,FALSE,FALSE,FALSE,FALSE,FALSE,FALSE,FALSE,FALSE,FALSE,FALSE,Day,Day,Day,Day
2,10-12-20 13:29,10-12-20 15:26,42.501929,-82.918056,42.496109,-82.917286,0.404,Incident on I-94 WB near I-696 Drive with caution.,nan,I-94 W,R,Saint Clair Shores,Macomb,MI,48081,US,US/Eastern,KDET,10-12-20 13:53,47,44,66,29.38,7,S,7,0,Fair,FALSE,FALSE,FALSE,FALSE,FALSE,FALSE,FALSE,FALSE,FALSE,FALSE,FALSE,FALSE,FALSE,Day,Day,Day,Day
2,18-04-20 14:41,18-04-20 15:25,41.556862,-73.779556,41.556862,-73.779556,0,Right hand shoulder blocked due to accident on Taconic State Pkwy Southbound at NY-52.,nan,Taconic State Pkwy,R,Hopewell Junction,Dutchess,NY,12533,US,US/Eastern,KPOU,18-04-20 14:53,45,38,63,29.59,10,N,15,0,Cloudy,FALSE,FALSE,FALSE,FALSE,TRUE,FALSE,FALSE,FALSE,FALSE,FALSE,FALSE,FALSE,FALSE,Day,Day,Day,Day
3,22-08-20 16:19,22-08-20 18:05,33.918056,-84.338028,33.918056,-84.338028,0,Lane blocked due to accident on I-285 Eastbound at Exit 29 Ashford Dunwoody Rd.,nan,Ashford Dunwoody Rd NE,R,Atlanta,DeKalb,GA,30319,US,US/Eastern,KPDK,22-08-20 15:53,81,81,67,28.93,10,SSE,6,0,Partly Cloudy,FALSE,FALSE,FALSE,FALSE,FALSE,FALSE,FALSE,FALSE,FALSE,FALSE,FALSE,FALSE,FALSE,Day,Day,Day,Day
2,03-10-18 12:46,03-10-18 13:16,35.596561,-78.759743,35.596561,-78.759743,0,Accident on US-401 Main St Northbound at NC-42 NC 55 Hwy.,1655,N Main St,L,Fuquay Varina,Wake,NC,27526-9021,US,US/Eastern,KHRJ,03-10-18 12:55,84.6,nan,53,30.1,nan,SW,8.1,nan,Clear,FALSE,FALSE,FALSE,FALSE,FALSE,FALSE,FALSE,FALSE,FALSE,FALSE,FALSE,FALSE,FALSE,Day,Day,Day,Day
2,15-02-18 10:59,15-02-18 11:29,29.640491,-95.482445,29.640491,-95.482445,0,Accident on Chimney Rock Rd at US-90 Alt Main St.,12496,Chimney Rock Rd,L,Houston,Harris,TX,77035-5544,US,US/Central,KMCJ,15-02-18 9:55,69.8,nan,100,30.18,4,Variable,4.6,nan,Overcast,FALSE,FALSE,TRUE,FALSE,FALSE,FALSE,TRUE,FALSE,FALSE,FALSE,FALSE,TRUE,FALSE,Day,Day,Day,Day
2,17-05-19 12:12,17-05-19 13:11,37.40691,-79.913933,37.40691,-79.913933,0,Left hand shoulder blocked and left lane blocked due to accident on US-220 Northbound at Azalea Rd.,2,Azalea Rd,L,Daleville,Botetourt,VA,24083-3527,US,US/Eastern,KROA,17-05-19 11:54,73,73,66,28.68,10,W,10,0,Fair,FALSE,FALSE,FALSE,FALSE,FALSE,FALSE,FALSE,FALSE,FALSE,FALSE,FALSE,FALSE,FALSE,Day,Day,Day,Day
2,25-06-20 14:48,25-06-20 15:03,40.9122,-73.88461,40.9122,-73.88461,0,At McLean Ave/Exit 3 - Accident. Left lane blocked.,nan,Saw Mill River Pkwy S,R,Yonkers,Westchester,NY,10705,US,US/Eastern,KLGA,25-06-20 14:51,88,88,26,29.94,10,S,8,0,Mostly Cloudy,FALSE,FALSE,FALSE,FALSE,FALSE,FALSE,FALSE,FALSE,FALSE,FALSE,FALSE,FALSE,FALSE,Day,Day,Day,Day
3,31-01-18 7:53,31-01-18 8:37,37.994461,-122.069885,37.994461,-122.069885,0,Lane blocked due to accident on I-680 Northbound at Exit 53 CA-4.,nan,I-680 S,R,Martinez,Contra Costa,CA,94553,US,US/Pacific,KCCR,31-01-18 7:53,44.1,42.5,89,30.09,10,SSE,3.5,nan,Clear,FALSE,FALSE,FALSE,FALSE,FALSE,FALSE,FALSE,FALSE,FALSE,FALSE,FALSE,FALSE,FALSE,Day,Day,Day,Day
3,07-09-17 20:37,07-09-17 21:07,32.87109,-80.010628,32.87109,-80.010628,0,Accident on I-26 Eastbound at Exit 213B Montague Ave.,nan,I-26 E,R,North Charleston,Charleston,SC,29418,US,US/Eastern,KCHS,07-09-17 20:56,72,nan,68,30.07,10,ESE,3.5,nan,Partly Cloudy,FALSE,FALSE,FALSE,FALSE,FALSE,FALSE,FALSE,FALSE,FALSE,FALSE,FALSE,FALSE,FALSE,Night,Night,Night,Day
2,21-12-18 13:31,21-12-18 14:01,30.426109,-97.753906,30.426109,-97.753906,0,Accident on Research Blvd Southbound at Pavilion Blvd.,11996,Pavilion Blvd,L,Austin,Travis,TX,78759,US,US/Central,KATT,21-12-18 13:51,64,nan,25,30.02,10,South,5.8,nan,Clear,FALSE,FALSE,FALSE,FALSE,FALSE,FALSE,FALSE,FALSE,FALSE,FALSE,FALSE,FALSE,FALSE,Day,Day,Day,Day
2,15-06-20 23:38,16-06-20 0:32,33.774159,-118.049783,33.774159,-118.049783,0,At CA-22/Garden Grove Fwy - Accident.,nan,CA-22 E,R,Seal Beach,Orange,CA,90740,US,US/Pacific,KSLI,15-06-20 21:58,66,66,75,29.89,10,S,6,0,Fair,FALSE,FALSE,FALSE,FALSE,FALSE,FALSE,FALSE,FALSE,FALSE,FALSE,FALSE,FALSE,FALSE,Night,Night,Night,Night
2,25-11-19 7:11,25-11-19 8:42,43.22039,-85.500961,43.22039,-85.500961,0,Accident on 17 Mile Rd at Stout Ave.,13999,Stout Ave NE,L,Cedar Springs,Kent,MI,49319-9555,US,US/Eastern,KGRR,25-11-19 6:53,37,32,89,28.64,8,SSW,7,0,Fair,FALSE,FALSE,FALSE,FALSE,FALSE,FALSE,FALSE,FALSE,FALSE,FALSE,FALSE,FALSE,FALSE,Night,Night,Day,Day
2,24-12-20 3:08,24-12-20 5:23,25.684458,-80.445924,25.684452,-80.446072,0.009,Incident on SW 88TH ST near SW 157TH AVE Drive with caution.,nan,SW 88th St,R,Miami,Miami-Dade,FL,33196,US,US/Eastern,KTMB,24-12-20 2:53,nan,nan,nan,29.99,10,ESE,10,0,Mostly Cloudy,TRUE,FALSE,FALSE,FALSE,FALSE,FALSE,FALSE,FALSE,FALSE,FALSE,FALSE,TRUE,FALSE,Night,Night,Night,Night
3,28-11-18 7:47,28-11-18 8:17,43.003693,-78.412064,43.003693,-78.412064,0,Accident on I-90 Eastbound at Exit 48A.,nan,I-90 E,R,Corfu,Genesee,NY,14036,US,US/Eastern,KBUF,28-11-18 7:51,30.2,18.9,93,29.66,0.8,West,16.1,0.02,Light Snow,FALSE,FALSE,FALSE,FALSE,FALSE,FALSE,FALSE,FALSE,FALSE,FALSE,FALSE,FALSE,FALSE,Day,Day,Day,Day
3,25-01-18 16:44,25-01-18 17:13,39.922646,-86.11689,39.922646,-86.11689,0,Very slow traffic and left lane closed due to accident on I-465 Eastbound near Exit 33 Keystone Ave.,nan,I-465 E,R,Indianapolis,Marion,IN,46240,US,US/Eastern,KEYE,25-01-18 16:53,46,40.6,56,30.31,10,SSE,11.5,nan,Clear,FALSE,FALSE,FALSE,FALSE,FALSE,FALSE,FALSE,FALSE,FALSE,FALSE,FALSE,FALSE,FALSE,Day,Day,Day,Day
2,20-10-17 9:23,20-10-17 10:53,30.420996,-91.140549,30.420996,-91.140549,0,Accident on College Dr at Bennington Ave.,2998,College Dr,R,Baton Rouge,East Baton Rouge,LA,70808-3203,US,US/Central,KBTR,20-10-17 9:53,66.9,nan,81,30.17,10,ENE,6.9,nan,Clear,FALSE,FALSE,FALSE,FALSE,FALSE,FALSE,FALSE,FALSE,FALSE,FALSE,FALSE,TRUE,FALSE,Day,Day,Day,Day
2,25-09-18 12:36,25-09-18 13:05,35.23933,-80.856415,35.23933,-80.856415,0,Accident on Frazier Ave at 5th St.,1417,W 5th St,L,Charlotte,Mecklenburg,NC,28216,US,US/Eastern,KCLT,25-09-18 12:52,77,nan,79,30.22,8,Calm,nan,nan,Mostly Cloudy,FALSE,FALSE,FALSE,FALSE,FALSE,FALSE,FALSE,FALSE,FALSE,FALSE,FALSE,FALSE,FALSE,Day,Day,Day,Day
2,08-07-16 12:38,08-07-16 19:07,35.05473,-80.85037,35.05457,-80.85036,0.011,At Ballantyne Commons Pkwy - Accident.,nan,Johnston Rd,R,Charlotte,Mecklenburg,NC,28277,US,US/Eastern,KEQY,08-07-16 12:53,91,nan,47,29.96,10,West,10.4,nan,Partly Cloudy,FALSE,FALSE,TRUE,FALSE,FALSE,FALSE,FALSE,FALSE,FALSE,FALSE,FALSE,TRUE,FALSE,Day,Day,Day,Day
3,12-11-19 4:27,12-11-19 6:57,34.037781,-117.320625,nan,nan,0,Accident on I-215 Southbound at Exit 39 Mt Vernon Ave.,nan,I-215 S,R,Grand Terrace,San Bernardino,CA,92313,US,US/Pacific,KSBD,12-11-19 4:20,52,52,56,28.81,10,ENE,5,0,Fair,FALSE,FALSE,FALSE,FALSE,FALSE,FALSE,FALSE,FALSE,FALSE,FALSE,FALSE,FALSE,FALSE,Night,Night,Night,Night
3,28-02-19 7:33,28-02-19 8:45,37.504467,-77.084549,37.504467,-77.084549,0,One lane blocked due to accident on I-64 Westbound at Exit 211 VA-106 Emmaus Church Rd.,nan,I-64 W,R,Providence Forge,New Kent,VA,23140,US,US/Eastern,KRIC,28-02-19 7:54,44.1,37.7,76,30.09,10,NNE,12.7,nan,Scattered Clouds,FALSE,FALSE,FALSE,FALSE,FALSE,FALSE,FALSE,FALSE,FALSE,FALSE,FALSE,FALSE,FALSE,Day,Day,Day,Day
2,29-05-20 13:22,29-05-20 14:07,33.38548,-111.9432,33.38548,-111.9432,0,At Mill Ave/Exit 173 - Accident. Hard shoulder blocked.,nan,Superstition Fwy E,R,Tempe,Maricopa,AZ,85282,US,US/Mountain,KPHX,29-05-20 13:51,106,106,11,28.66,10,VAR,7,0,Fair,FALSE,FALSE,FALSE,FALSE,FALSE,FALSE,FALSE,FALSE,FALSE,FALSE,FALSE,FALSE,FALSE,Day,Day,Day,Day
2,22-12-20 0:44,22-12-20 4:51,43.100197,-77.547005,43.099092,-77.546755,0.077,Incident on CLOVER ST near FRENCH RD Expect delays.,388, French Rd,R,Pittsford,Monroe,NY,14534-1153,US,US/Eastern,KROC,22-12-20 0:54,34,28,100,29.05,6,SW,7,0,Wintry Mix,FALSE,FALSE,FALSE,FALSE,FALSE,FALSE,FALSE,FALSE,FALSE,FALSE,FALSE,TRUE,FALSE,Night,Night,Night,Night
4,26-10-20 0:38,26-10-20 2:41,40.428002,-79.926779,40.426058,-79.895801,1.635,Incident on I-376 EB near I-376 Road closed. Take alternate route.,nan,I-376 E,R,Pittsburgh,Allegheny,PA,15217,US,US/Eastern,KAGC,26-10-20 0:53,45,43,97,28.71,10,E,5,0,Cloudy,FALSE,FALSE,FALSE,FALSE,FALSE,FALSE,FALSE,FALSE,FALSE,FALSE,FALSE,FALSE,FALSE,Night,Night,Night,Night
2,13-11-19 17:52,13-11-19 19:25,38.510303,-121.464525,38.510303,-121.464525,0,At 47th Ave - Accident.,6374, Martin Luther King Jr Blvd,R,Sacramento,Sacramento,CA,95823,US,US/Pacific,KSAC,13-11-19 17:53,60,60,67,29.92,9,SW,3,0,Cloudy,FALSE,FALSE,FALSE,FALSE,FALSE,FALSE,FALSE,FALSE,FALSE,FALSE,FALSE,FALSE,FALSE,Night,Night,Day,Day
3,13-11-20 18:30,13-11-20 19:50,42.764778,-73.760338,nan,nan,1.840000033,Entry ramp to I-87 Northbound from Loudon Rd Southbound lane blocked due to accident.,nan,Adirondack Northway N,R,Latham,Albany,NY,12110,US,US/Eastern,KALB,13-11-20 18:15,37,37,100,29.66,9,CALM,0,0,Shallow Fog,FALSE,FALSE,FALSE,FALSE,FALSE,FALSE,FALSE,FALSE,FALSE,FALSE,FALSE,FALSE,FALSE,Night,Night,Night,Night
2,29-12-16 7:35,29-12-16 8:05,28.698406,-82.451477,28.698406,-82.451477,0,Accident on County Hwy-480 Oak Park Blvd at County Hwy-491 Lecanto Hwy.,1101,W Oak Park Blvd,R,Homosassa,Citrus,FL,34446-6610,US,US/Eastern,KCGC,29-12-16 7:35,60.8,nan,94,30.1,0.2,Calm,nan,nan,Fog,FALSE,FALSE,FALSE,FALSE,FALSE,FALSE,FALSE,FALSE,FALSE,FALSE,FALSE,FALSE,FALSE,Day,Day,Day,Day
2,06-01-20 15:37,06-01-20 16:05,32.7584,-97.25763,32.75949,-97.24837,0.543,At Brentwood Stair Rd/Exit 19 - Accident.,nan,I-30 E,R,Fort Worth,Tarrant,TX,76103,US,US/Central,KFWD,06-01-20 15:53,63,63,34,29.36,10,NW,10,0,Fair,FALSE,FALSE,FALSE,FALSE,FALSE,FALSE,FALSE,FALSE,FALSE,FALSE,FALSE,FALSE,FALSE,Day,Day,Day,Day
2,15-12-19 13:47,15-12-19 14:40,40.619857,-122.365844,40.619857,-122.365844,0,At CA-299/Exit 680 - Accident.,nan,I-5 S,R,Redding,Shasta,CA,96003,US,US/Pacific,KRDD,15-12-19 13:53,52,52,61,29.67,10,ESE,5,0,Fair,FALSE,FALSE,FALSE,FALSE,FALSE,FALSE,FALSE,FALSE,FALSE,FALSE,FALSE,FALSE,FALSE,Day,Day,Day,Day
3,29-03-19 7:43,29-03-19 8:43,33.913502,-118.143219,nan,nan,0.920000017,Entry ramp to I-105 Westbound from Lakewood Blvd lane blocked due to accident.,8796,Cheyenne St,R,Downey,Los Angeles,CA,90242,US,US/Pacific,KLGB,29-03-19 7:53,55,nan,74,30.19,7,Calm,nan,nan,Clear,FALSE,FALSE,FALSE,FALSE,FALSE,FALSE,FALSE,FALSE,FALSE,FALSE,FALSE,FALSE,FALSE,Day,Day,Day,Day
2,05-06-18 7:43,05-06-18 8:42,44.852409,-93.247139,nan,nan,1.090000033,Accident on MN-77 Southbound between I-494 and Killebrew Dr.,nan,MN-77 N,R,Minneapolis,Hennepin,MN,55425,US,US/Central,KMSP,05-06-18 7:53,63,nan,58,29.86,10,East,13.8,nan,Partly Cloudy,FALSE,FALSE,FALSE,FALSE,FALSE,FALSE,FALSE,FALSE,FALSE,FALSE,FALSE,FALSE,FALSE,Day,Day,Day,Day
2,03-01-18 18:55,03-01-18 19:24,29.690945,-95.417068,29.690945,-95.417068,0,Accident on Main St at US-90 Alt Old Spanish Trl.,nan,Main St,R,Houston,Harris,TX,77054,US,US/Central,KMCJ,03-01-18 13:55,42.8,38.6,27,30.35,10,Variable,6.9,nan,Clear,FALSE,FALSE,FALSE,FALSE,FALSE,FALSE,FALSE,FALSE,FALSE,FALSE,FALSE,TRUE,FALSE,Night,Night,Night,Day
2,03-11-20 21:28,03-11-20 23:29,34.03542,-118.274465,34.03122,-118.274582,0.29,Incident on I-110 SB near I-10 Drive with caution.,nan,Harbor Fwy S,R,Los Angeles,Los Angeles,CA,90007,US,US/Pacific,KCQT,03-11-20 21:52,62,62,84,29.83,4,CALM,0,0,Haze,FALSE,FALSE,FALSE,FALSE,FALSE,FALSE,FALSE,FALSE,FALSE,FALSE,FALSE,FALSE,FALSE,Night,Night,Night,Night
2,30-11-20 17:40,30-11-20 18:38,26.61341,-80.068784,26.594618,-80.069313,1.299,Slow traffic on I-95 S from 10th Ave/Exit 64 (I-95) to FL-812/Lantana Rd/Exit 61 (I-95) due to accident.,nan,I-95 S,R,Lake Worth,Palm Beach,FL,33461,US,US/Eastern,KPBI,30-11-20 17:53,72,72,91,29.86,10,W,6,0,Mostly Cloudy,FALSE,FALSE,FALSE,FALSE,FALSE,FALSE,FALSE,FALSE,FALSE,FALSE,FALSE,FALSE,FALSE,Night,Day,Day,Day
2,12-05-20 18:27,12-05-20 18:57,42.972679,-85.677254,42.972679,-85.677254,0,Center right lane blocked due to accident on US-131 Southbound at Exits 85B 86A 86B I-196 Exits 77A 77B.,nan,US-131 S,R,Grand Rapids,Kent,MI,49504,US,US/Eastern,KGRR,12-05-20 18:53,54,54,21,29.21,10,NW,14,0,Fair,FALSE,FALSE,FALSE,FALSE,FALSE,FALSE,FALSE,FALSE,FALSE,FALSE,FALSE,FALSE,FALSE,Day,Day,Day,Day
2,21-11-20 13:58,21-11-20 23:43,25.685477,-80.414796,25.684322,-80.416621,0.139,Stationary traffic on FL-825 - FL-94 from SW 132nd Pl to SW 90th St due to accident.,13667, SW 88th St,L,Miami,Miami-Dade,FL,33183,US,US/Eastern,KTMB,21-11-20 13:53,80,80,71,30.06,10,ENE,15,0,Mostly Cloudy,FALSE,FALSE,FALSE,FALSE,FALSE,FALSE,FALSE,FALSE,FALSE,FALSE,FALSE,FALSE,FALSE,Day,Day,Day,Day
2,16-10-20 6:56,16-10-20 9:56,46.325429,-94.962033,46.325359,-94.988213,1.249,Incident on MN-210 near CR-77 Drive with caution.,47998, 193rd Ave,R,Aldrich,Todd,MN,56434-3022,US,US/Central,KSAZ,16-10-20 6:55,36,27,75,28.59,10,W,13,0,Cloudy,FALSE,FALSE,FALSE,FALSE,FALSE,FALSE,FALSE,FALSE,FALSE,FALSE,FALSE,FALSE,FALSE,Night,Night,Day,Day
2,03-07-18 15:07,03-07-18 15:36,39.826813,-84.908905,39.826813,-84.908905,0,Accident on 6th St at US-40 National Rd.,522,National Rd W,L,Richmond,Wayne,IN,47374-4105,US,US/Eastern,KVES,03-07-18 15:15,86,nan,66,30.17,10,ESE,6.9,nan,Mostly Cloudy,FALSE,FALSE,FALSE,FALSE,FALSE,FALSE,FALSE,FALSE,FALSE,FALSE,FALSE,FALSE,FALSE,Day,Day,Day,Day
2,13-11-19 16:36,13-11-19 17:07,38.644922,-121.383059,38.644922,-121.383059,0,At Watt Ave - Accident.,nan,Watt Ave,R,North Highlands,Sacramento,CA,95660,US,US/Pacific,KMCC,13-11-19 16:45,68,68,40,29.82,10,SW,3,nan,Cloudy,FALSE,FALSE,FALSE,FALSE,FALSE,FALSE,FALSE,FALSE,FALSE,FALSE,FALSE,FALSE,FALSE,Day,Day,Day,Day
1,13-06-20 16:50,13-06-20 17:20,35.25935,-80.77776,35.25935,-80.77776,0,At Eastway Dr - Accident.,nan,N Tryon St,R,Charlotte,Mecklenburg,NC,28213,US,US/Eastern,KJQF,13-06-20 16:50,81,81,39,29.39,10,NE,3,0,Fair,FALSE,FALSE,FALSE,TRUE,FALSE,FALSE,FALSE,FALSE,FALSE,FALSE,FALSE,FALSE,FALSE,Day,Day,Day,Day
3,20-05-16 17:23,20-05-16 17:47,40.070709,-83.134422,40.070709,-83.134422,0,Queueing traffic and left lane blocked due to accident on I-270 Outerbelt Southbound at Tuttle Crossing Blvd.,nan,Outerbelt S,R,Dublin,Franklin,OH,43016,US,US/Eastern,KOSU,20-05-16 16:53,71.1,nan,44,30.06,10,ESE,11.5,nan,Mostly Cloudy,FALSE,FALSE,FALSE,FALSE,FALSE,FALSE,FALSE,FALSE,FALSE,FALSE,FALSE,FALSE,FALSE,Day,Day,Day,Day
2,04-03-20 18:27,04-03-20 18:57,38.48819,-77.38915,38.49569,-77.38274,0.623,At Russell Rd/Exit 148 - Accident. Right lane blocked.,nan,I-95 N,R,Stafford,Stafford,VA,22554,US,US/Eastern,KRMN,04-03-20 18:35,58,58,27,29.7,10,SSW,5,0,Partly Cloudy,FALSE,FALSE,FALSE,FALSE,FALSE,FALSE,FALSE,FALSE,FALSE,FALSE,FALSE,FALSE,FALSE,Night,Day,Day,Day
3,28-09-19 15:15,28-09-19 16:37,37.869022,-77.453568,37.869022,-77.453568,0,Right hand shoulder closed due to accident on I-95 Northbound at Exit 98 VA-30.,nan,I-95 N,R,Doswell,Hanover,VA,23047,US,US/Eastern,KOFP,28-09-19 14:54,89,89,53,29.87,10,VAR,3,0,Fair,FALSE,FALSE,FALSE,FALSE,FALSE,FALSE,FALSE,FALSE,FALSE,FALSE,FALSE,FALSE,FALSE,Day,Day,Day,Day
2,05-11-18 11:50,05-11-18 12:35,43.005009,-83.684975,43.005009,-83.684975,0,Accident on Grand Traverse St at Church St.,1620,S Grand Traverse St,R,Flint,Genesee,MI,48503,US,US/Eastern,KFNT,05-11-18 11:53,50,nan,66,29.99,10,SSW,10.4,nan,Overcast,FALSE,FALSE,FALSE,FALSE,FALSE,FALSE,FALSE,FALSE,FALSE,FALSE,FALSE,FALSE,FALSE,Day,Day,Day,Day
2,21-09-18 4:49,21-09-18 5:18,42.967983,-85.683899,42.967983,-85.683899,0,Accident on Lexington Ave around Jackson St.,628,Jackson St NW,L,Grand Rapids,Kent,MI,49504-5612,US,US/Eastern,KGRR,21-09-18 4:53,79,nan,66,29.75,10,SSW,17.3,nan,Clear,FALSE,FALSE,FALSE,FALSE,FALSE,FALSE,FALSE,FALSE,FALSE,FALSE,FALSE,FALSE,FALSE,Night,Night,Night,Night
2,16-12-20 21:26,17-12-20 0:10,42.972506,-73.831128,42.971572,-73.83099,0.065,Crash on NY 67 eastbound at Town of Ballston; Town of Malta Line; CR 82; Eastline Road (Malta) right shoulder closed,504, Eastline Rd,L,Ballston Spa,Saratoga,NY,12020-3632,US,US/Eastern,KSCH,16-12-20 21:48,18,8,73,29.83,1,NNE,7,0,Light Snow,FALSE,FALSE,FALSE,FALSE,FALSE,FALSE,FALSE,FALSE,FALSE,FALSE,FALSE,FALSE,FALSE,Night,Night,Night,Night
3,09-02-18 19:26,09-02-18 20:11,34.134365,-117.957603,34.134365,-117.957603,0,HOV and #1 lane blocked due to accident on I-210 Westbound at I-605.,nan,Foothill Fwy W,R,Baldwin Park,Los Angeles,CA,91706,US,US/Pacific,KEMT,09-02-18 19:54,59,nan,82,29.95,10,SW,5.8,nan,Clear,FALSE,FALSE,FALSE,FALSE,FALSE,FALSE,FALSE,FALSE,FALSE,FALSE,FALSE,FALSE,FALSE,Night,Night,Night,Night
2,30-11-20 0:45,30-11-20 2:26,40.353738,-74.472659,40.346308,-74.475839,0.54,Crash on New Jersey Turnpike Outer Roadway southbound North of Interchange 8A - NJ 32 (Monroe Twp) 1 Left lane of 3 lanes closed,nan,New Jersey Tpke S,R,Monroe Township,Middlesex,NJ,8831,US,US/Eastern,KTTN,30-11-20 0:53,42,42,65,29.81,10,CALM,0,0,Fair,FALSE,FALSE,FALSE,FALSE,FALSE,FALSE,FALSE,FALSE,FALSE,FALSE,FALSE,FALSE,FALSE,Night,Night,Night,Night
2,08-04-20 10:39,08-04-20 11:09,32.78758,-96.79058,32.78758,-96.79058,0,At N Good Latimer Expy - Accident.,nan,N Good Latimer Ac Rd W,R,Dallas,Dallas,TX,75204,US,US/Central,KDAL,08-04-20 10:53,78,78,76,29.34,6,SW,6,0,Haze,FALSE,FALSE,TRUE,FALSE,FALSE,FALSE,TRUE,FALSE,FALSE,FALSE,FALSE,TRUE,FALSE,Day,Day,Day,Day
2,11-04-19 12:20,11-04-19 12:49,31.759741,-106.484001,31.759741,-106.484001,0,Accident on Campbell St at Myrtle Ave.,121,N Campbell St,L,El Paso,El Paso,TX,79901-1439,US,US/Mountain,KELP,11-04-19 12:40,63,63,14,25.95,10,W,17,nan,Fair,FALSE,FALSE,FALSE,FALSE,FALSE,FALSE,FALSE,FALSE,FALSE,FALSE,FALSE,TRUE,FALSE,Day,Day,Day,Day
3,18-04-17 10:21,18-04-17 10:51,32.857914,-96.651512,nan,nan,0.01,Slow traffic due to accident on I-635 Northbound at Exits 11A 11B Centerville Rd.,nan,LBJ Fwy N,R,Dallas,Dallas,TX,75228,US,US/Central,KDAL,18-04-17 9:53,70,nan,81,30.03,10,SSE,6.9,nan,Mostly Cloudy,FALSE,FALSE,FALSE,FALSE,FALSE,FALSE,FALSE,FALSE,FALSE,FALSE,FALSE,FALSE,FALSE,Day,Day,Day,Day
3,14-08-17 8:33,14-08-17 9:17,30.334675,-81.670998,30.334675,-81.670998,0,Accident on I-95 Southbound before Exits 352D 353A 353B 353C US-17.,nan,FL-228 W,R,Jacksonville,Duval,FL,32204,US,US/Eastern,KNIP,14-08-17 8:53,82.9,nan,82,29.98,10,SSW,4.6,nan,Scattered Clouds,FALSE,FALSE,FALSE,FALSE,FALSE,FALSE,FALSE,FALSE,FALSE,FALSE,FALSE,FALSE,FALSE,Day,Day,Day,Day
2,11-09-19 13:41,11-09-19 14:53,33.940923,-117.249238,33.940923,-117.249238,0,At Heacock St - Accident.,nan,CA-60 E,R,Moreno Valley,Riverside,CA,92553,US,US/Pacific,KRIV,11-09-19 13:58,81,81,37,28.33,10,NW,9,0,Fair,FALSE,FALSE,FALSE,FALSE,FALSE,FALSE,FALSE,FALSE,FALSE,FALSE,FALSE,FALSE,FALSE,Day,Day,Day,Day
2,15-05-18 22:45,15-05-18 23:15,28.981974,-81.987343,28.981974,-81.987343,0,Restrictions due to accident on County Hwy-42 at US-441.,9989,SE Highway 42,R,Summerfield,Marion,FL,34491-6623,US,US/Eastern,KVVG,15-05-18 22:53,73,73,90,29.91,10,SSE,12,0,Partly Cloudy,FALSE,FALSE,FALSE,FALSE,FALSE,FALSE,FALSE,FALSE,FALSE,FALSE,FALSE,TRUE,FALSE,Night,Night,Night,Night
2,04-05-18 17:32,04-05-18 23:32,33.4737,-112.26643,33.48491,-112.26377,0.79,At Thomas Rd/Exit 3 - Accident.,nan,Agua Fria Fwy N,R,Phoenix,Maricopa,AZ,85037,US,US/Mountain,KGEU,04-05-18 17:48,93.2,nan,7,29.97,10,Calm,nan,nan,Clear,FALSE,FALSE,FALSE,FALSE,FALSE,FALSE,FALSE,FALSE,FALSE,FALSE,FALSE,FALSE,FALSE,Day,Day,Day,Day
2,09-06-16 20:49,09-06-16 21:19,32.805706,-117.156586,32.805706,-117.156586,0,Accident on 3341 Currant St near Baltic St.,7692,Baltic St,L,San Diego,San Diego,CA,92111-4823,US,US/Pacific,KMYF,09-06-16 20:53,64,nan,78,29.91,10,Calm,nan,nan,Overcast,FALSE,FALSE,FALSE,FALSE,FALSE,FALSE,FALSE,FALSE,FALSE,FALSE,FALSE,FALSE,FALSE,Night,Night,Day,Day
2,10-05-17 15:53,10-05-17 21:53,38.864871,-76.846793,38.873396,-76.84354,0.614,At I-495/I-95/Capital Beltway - Accident.,nan,Capital Beltway N,R,Capitol Heights,Prince George's,MD,20743,US,US/Eastern,KWBC,10-05-17 15:09,nan,nan,nan,nan,nan,North,nan,nan,nan,FALSE,FALSE,FALSE,FALSE,FALSE,FALSE,FALSE,FALSE,FALSE,FALSE,FALSE,FALSE,FALSE,Day,Day,Day,Day
2,15-10-16 15:57,15-10-16 16:41,41.755451,-72.650444,nan,nan,0.01,Slow traffic and left lane closed due to accident on CT-15 Southbound at US-5.,nan,Wilbur Cross Hwy N,R,East Hartford,Hartford,CT,6118,US,US/Eastern,KHFD,15-10-16 15:53,62.1,nan,43,30.36,10,Calm,nan,nan,Clear,FALSE,FALSE,FALSE,FALSE,FALSE,FALSE,FALSE,FALSE,FALSE,FALSE,FALSE,FALSE,FALSE,Day,Day,Day,Day
2,17-11-20 19:42,18-11-20 2:29,37.8945,-122.116587,37.896219,-122.073138,2.372,Slow traffic on CA-24 E from Oak Hill Rd exit [12] to Mt Diablo Blvd exit [15A] due to accident.,nan,Sierra Vista Way,R,Lafayette,Contra Costa,CA,94549,US,US/Pacific,KCCR,17-11-20 19:53,59,59,87,29.85,10,S,9,0,Light Rain,FALSE,FALSE,FALSE,FALSE,FALSE,FALSE,FALSE,FALSE,FALSE,FALSE,FALSE,FALSE,FALSE,Night,Night,Night,Night
2,16-09-20 17:30,16-09-20 19:29,39.617117,-120.591355,39.626627,-120.575475,1.071,Incident on CA-49 near GOLD LAKE HWY Drive with caution.,34398, State Highway 49,R,Calpine,Sierra,CA,96124,US,US/Pacific,KTRK,16-09-20 17:45,75,75,18,24.33,3,WSW,12,0,Smoke,FALSE,FALSE,FALSE,FALSE,FALSE,FALSE,FALSE,FALSE,FALSE,FALSE,FALSE,FALSE,FALSE,Day,Day,Day,Day
2,26-04-19 5:46,26-04-19 7:45,36.577457,-121.908821,36.577457,-121.908821,0,Lane blocked due to accident on CA-1 Southbound at Exit 399A 17 Mile Dr.,nan,CA-1 S,R,Monterey,Monterey,CA,93940,US,US/Pacific,KMRY,26-04-19 5:54,50,50,89,29.74,6,CALM,0,0,Cloudy,FALSE,FALSE,FALSE,FALSE,FALSE,FALSE,FALSE,FALSE,FALSE,FALSE,FALSE,FALSE,FALSE,Night,Night,Day,Day
2,14-09-16 7:23,14-09-16 7:53,33.900101,-84.447914,33.900101,-84.447914,0,Accident on Powers Ferry Rd both ways at I-285.,nan,Interstate North Pkwy SE,R,Atlanta,Cobb,GA,30339,US,US/Eastern,KMGE,14-09-16 6:58,70.3,nan,91,30.14,10,Variable,1.2,nan,Partly Cloudy,FALSE,FALSE,TRUE,FALSE,FALSE,FALSE,FALSE,FALSE,FALSE,FALSE,FALSE,TRUE,FALSE,Day,Day,Day,Day
3,30-06-19 10:21,30-06-19 10:51,42.928024,-83.691177,42.928024,-83.691177,0,Accident on I-75 Southbound at Fenton Rd.,nan,I-75 S,R,Grand Blanc,Genesee,MI,48439,US,US/Eastern,KFNT,30-06-19 9:53,75,75,53,29.23,10,NW,5,0,Fair,FALSE,FALSE,FALSE,FALSE,FALSE,FALSE,FALSE,FALSE,FALSE,FALSE,FALSE,FALSE,FALSE,Day,Day,Day,Day
2,08-10-20 16:26,08-10-20 16:56,39.71571,-84.219994,39.71571,-84.219994,0,Accident on Dryden Rd at I-75 Exit 50A.,nan,I-75 S,R,Dayton,Montgomery,OH,45439,US,US/Eastern,KMGY,08-10-20 16:53,74,74,30,29.09,10,CALM,0,0,Fair,FALSE,FALSE,FALSE,FALSE,FALSE,FALSE,FALSE,FALSE,FALSE,FALSE,FALSE,FALSE,FALSE,Day,Day,Day,Day
2,07-05-17 15:44,07-05-17 16:11,41.773296,-87.993965,nan,nan,0.01,Accident on 63rd St at Fairview Ave.,6301,Fairview Ave,L,Downers Grove,Dupage,IL,60516-3011,US,US/Central,KLOT,07-05-17 15:35,60.1,nan,39,30.01,10,NNW,15,nan,Clear,FALSE,FALSE,FALSE,FALSE,FALSE,FALSE,FALSE,FALSE,FALSE,FALSE,FALSE,TRUE,FALSE,Day,Day,Day,Day
2,09-06-20 5:31,09-06-20 7:43,37.328154,-121.111046,37.328154,-121.111046,0,At CR-J18/Stuhr Rd - Accident.,nan,I-5 S,R,Newman,Stanislaus,CA,95360,US,US/Pacific,KMOD,09-06-20 5:53,54,54,69,30.02,10,CALM,0,0,Fair,FALSE,FALSE,FALSE,FALSE,TRUE,FALSE,FALSE,FALSE,FALSE,FALSE,FALSE,FALSE,FALSE,Night,Day,Day,Day
2,07-05-20 7:20,07-05-20 8:33,44.95075,-93.09934,44.95075,-93.09934,0,At I-35E/Exit 241 - Accident.,nan,I-94 E,R,Saint Paul,Ramsey,MN,55101,US,US/Central,KSTP,07-05-20 6:53,46,41,51,29.33,10,NNW,9,0,Fair,FALSE,FALSE,FALSE,FALSE,FALSE,FALSE,FALSE,FALSE,FALSE,FALSE,FALSE,TRUE,FALSE,Day,Day,Day,Day
2,26-04-18 2:41,26-04-18 3:26,34.007862,-117.52449,34.007862,-117.52449,0,Accident on Etiwanda Ave near Thurston Ln.,4438,Etiwanda Ave,L,Mira Loma,Riverside,CA,91752-1400,US,US/Pacific,KRAL,26-04-18 2:53,55,nan,83,29.96,9,Calm,nan,nan,Clear,FALSE,FALSE,FALSE,FALSE,FALSE,FALSE,FALSE,FALSE,FALSE,FALSE,FALSE,FALSE,FALSE,Night,Night,Night,Night
2,18-10-20 10:26,18-10-20 12:02,26.42992,-80.090312,26.417095,-80.090201,0.886,Incident on I-95 SB near EXIT 50 Left lane blocked.,nan,I-95 S,R,Delray Beach,Palm Beach,FL,33444,US,US/Eastern,KBCT,18-10-20 10:53,84,84,72,30.03,10,E,8,0,Mostly Cloudy,FALSE,FALSE,FALSE,FALSE,FALSE,FALSE,FALSE,FALSE,FALSE,FALSE,FALSE,FALSE,FALSE,Day,Day,Day,Day
2,14-12-17 11:49,14-12-17 12:33,35.258335,-80.794762,35.258335,-80.794762,0,Accident on US-29 Tryon St Eastbound at Sugar Creek Rd.,nan,W Sugar Creek Rd,R,Charlotte,Mecklenburg,NC,28213,US,US/Eastern,KJQF,14-12-17 11:55,53.6,nan,33,29.89,10,WNW,9.2,nan,Clear,FALSE,FALSE,FALSE,FALSE,FALSE,FALSE,FALSE,FALSE,FALSE,FALSE,FALSE,TRUE,FALSE,Day,Day,Day,Day
3,18-03-20 22:08,18-03-20 22:23,38.80037,-77.11725,38.80037,-77.11725,0,At Eisenhower Ave Connector/Exit 174 - Accident. Hard shoulder blocked.,nan,Capital Beltway W,R,Alexandria,Fairfax County,VA,22310,US,US/Eastern,KDAA,18-03-20 22:16,52,52,62,30.27,10,SE,8,0,Light Rain,FALSE,FALSE,FALSE,FALSE,FALSE,FALSE,FALSE,FALSE,FALSE,FALSE,FALSE,FALSE,FALSE,Night,Night,Night,Night
2,29-04-20 9:51,29-04-20 10:24,35.266849,-119.030632,35.266849,-119.030632,0,At CA-99/Campagnoni St - Accident.,2553, Taft Hwy,R,Bakersfield,Kern,CA,93313,US,US/Pacific,KBFL,29-04-20 9:54,80,80,40,29.45,10,VAR,5,0,Fair,FALSE,FALSE,FALSE,FALSE,FALSE,FALSE,FALSE,FALSE,FALSE,FALSE,FALSE,FALSE,FALSE,Day,Day,Day,Day
2,07-11-20 20:20,07-11-20 22:43,38.384973,-75.422516,38.384965,-75.42196,0.03,US 50 WEST AT SIXTY FOOT RD,nan,Ocean Gtwy,R,Pittsville,Wicomico,MD,21850,US,US/Eastern,KSBY,07-11-20 19:54,53,53,89,30.24,10,CALM,0,0,Fair,FALSE,FALSE,FALSE,FALSE,FALSE,FALSE,FALSE,FALSE,FALSE,FALSE,FALSE,TRUE,FALSE,Night,Night,Night,Night
2,23-12-20 15:01,24-12-20 2:25,37.884749,-122.308882,37.833222,-122.294673,3.644,Slow traffic on Eastshore Fwy W - I-80 W - I-580 E from Cleveland Ave (I-80) to I-80/I-580 (Emeryville) (I-80) due to accident.,nan,Eastshore Fwy W,R,Berkeley,Alameda,CA,94710,US,US/Pacific,KOAK,23-12-20 14:53,60,60,36,30.21,10,CALM,0,0,Mostly Cloudy,FALSE,FALSE,FALSE,FALSE,FALSE,FALSE,FALSE,FALSE,FALSE,FALSE,FALSE,FALSE,FALSE,Day,Day,Day,Day
2,06-09-16 12:14,06-09-16 18:14,44.570877,-92.645325,44.569408,-92.641102,0.231,At Cannon Bottom Rd - Accident.,32998, Highway 61 Blvd,L,Red Wing,Goodhue,MN,55066-6006,US,US/Central,KRGK,06-09-16 12:15,71.6,nan,94,29.93,5,SSE,5.8,0.04,Rain,FALSE,FALSE,TRUE,TRUE,FALSE,FALSE,FALSE,FALSE,FALSE,TRUE,FALSE,FALSE,FALSE,Day,Day,Day,Day
2,17-09-19 6:21,17-09-19 8:09,40.703041,-73.566048,40.703041,-73.566048,0,Accident on Prospect Ave at Bellmore Ave.,613,Bellmore Ave,L,East Meadow,Nassau,NY,11554-4708,US,US/Eastern,KFRG,17-09-19 5:53,57,57,77,29.95,10,NNE,7,0,Fair,FALSE,FALSE,FALSE,FALSE,FALSE,FALSE,FALSE,FALSE,FALSE,FALSE,FALSE,TRUE,FALSE,Night,Day,Day,Day
2,29-09-17 8:47,29-09-17 9:17,43.077332,-77.546585,43.077332,-77.546585,0,Serious accident on NY-65 Clover St at County Hwy-37 Stone Rd.,3001,Clover St,R,Pittsford,Monroe,NY,14534-2815,US,US/Eastern,KROC,29-09-17 8:54,52,nan,80,30.1,10,Calm,nan,nan,Scattered Clouds,FALSE,FALSE,FALSE,FALSE,FALSE,FALSE,FALSE,FALSE,FALSE,FALSE,FALSE,TRUE,FALSE,Day,Day,Day,Day
2,16-03-18 14:59,16-03-18 15:29,29.702297,-95.359451,29.702297,-95.359451,0,Accident on US-90 Alt Old Spanish Trl at Scott St.,nan,Scott St,R,Houston,Harris,TX,77021,US,US/Central,KMCJ,16-03-18 14:55,80.6,nan,65,29.88,10,Variable,5.8,nan,Mostly Cloudy,FALSE,FALSE,FALSE,FALSE,FALSE,FALSE,FALSE,FALSE,FALSE,FALSE,FALSE,TRUE,FALSE,Day,Day,Day,Day
2,30-12-16 6:54,30-12-16 12:54,41.80175,-88.16737,41.80161,-88.16737,0.01,At CR-53/Diehl Rd - Accident.,nan,Winfield Rd,R,Warrenville,DuPage,IL,60555,US,US/Central,KDPA,30-12-16 6:52,23,11.7,72,30.09,10,West,11.5,nan,Clear,FALSE,FALSE,TRUE,FALSE,FALSE,FALSE,FALSE,FALSE,FALSE,FALSE,FALSE,TRUE,FALSE,Night,Day,Day,Day
2,18-01-18 6:55,18-01-18 7:24,40.969318,-73.774094,40.969318,-73.774094,0,Right hand shoulder blocked due to accident on Hutchinson River Pkwy Northbound at Exit 20 NY-125 Weaver St.,nan,Weaver St,R,Scarsdale,Westchester,NY,10583,US,US/Eastern,KHPN,18-01-18 6:56,15.1,7.7,70,30.07,10,West,4.6,nan,Partly Cloudy,FALSE,FALSE,FALSE,FALSE,FALSE,FALSE,FALSE,FALSE,FALSE,FALSE,FALSE,FALSE,FALSE,Night,Day,Day,Day
2,04-04-19 19:38,04-04-19 20:08,35.07973,-90.06555,35.08006,-90.06306,0.143,At Horn Lake Rd/Exit 8 - Accident. Right lane blocked.,nan,I-55 S,R,Memphis,Shelby,TN,38109,US,US/Central,KMEM,04-04-19 19:45,56,56,93,29.64,10,CALM,0,0,Mostly Cloudy,FALSE,FALSE,FALSE,FALSE,TRUE,FALSE,FALSE,FALSE,FALSE,FALSE,FALSE,FALSE,FALSE,Night,Day,Day,Day
2,21-10-19 13:23,21-10-19 14:32,42.229309,-88.144798,nan,nan,0,Lane blocked due to accident on IL-59 Southbound at CR-V49 Kelsey Rd.,25225,N IL Route 59,L,Barrington,Lake,IL,60010,US,US/Central,KPWK,21-10-19 13:52,65,65,75,28.72,10,S,22,0,Cloudy / Windy,FALSE,FALSE,FALSE,FALSE,FALSE,FALSE,FALSE,FALSE,FALSE,FALSE,FALSE,TRUE,FALSE,Day,Day,Day,Day
2,01-03-17 6:36,01-03-17 7:06,40.673615,-73.857185,nan,nan,0.01,Accident on Conduit Ave at 79th St.,7900,N Conduit Ave,R,Howard Beach,Queens,NY,11414,US,US/Eastern,KJFK,01-03-17 6:43,48.9,nan,100,29.81,0.2,SSE,6.9,nan,Overcast,FALSE,FALSE,FALSE,FALSE,FALSE,FALSE,FALSE,FALSE,FALSE,FALSE,FALSE,FALSE,FALSE,Day,Day,Day,Day
3,15-04-19 8:16,15-04-19 9:30,34.247787,-118.42585,34.247787,-118.42585,0,Right hand shoulder blocked due to accident on I-5 Southbound near Exit 155A Terra Bella St.,nan,Golden State Fwy S,R,Pacoima,Los Angeles,CA,91331,US,US/Pacific,KWHP,15-04-19 8:00,55,55,41,28.83,10,CALM,0,nan,Fair,FALSE,FALSE,FALSE,FALSE,FALSE,FALSE,FALSE,FALSE,FALSE,FALSE,FALSE,FALSE,FALSE,Day,Day,Day,Day
3,15-12-18 7:15,15-12-18 7:44,37.010113,-94.548073,37.010113,-94.548073,0,Left lane closed due to accident on I-44 Eastbound after Exit 4 MO-43.,nan,I-44 W,R,Joplin,Newton,MO,64804,US,US/Central,KJLN,15-12-18 6:53,30,20.5,69,30.16,10,North,11.5,nan,Clear,FALSE,FALSE,FALSE,FALSE,FALSE,FALSE,FALSE,FALSE,FALSE,FALSE,FALSE,FALSE,FALSE,Night,Day,Day,Day
2,27-06-20 20:00,27-06-20 20:33,39.63915,-75.09758,39.64095,-75.09874,0.139,At CR-553/Exit 45 - Fuel spillage accident. Obstruction on roadway {something that does block the road or part of it}.,nan,NJ-55 N,R,Clayton,Gloucester,NJ,8312,US,US/Eastern,KPHL,27-06-20 19:54,86,86,51,29.72,10,WSW,18,0,Mostly Cloudy,FALSE,FALSE,FALSE,FALSE,TRUE,FALSE,FALSE,FALSE,FALSE,FALSE,FALSE,FALSE,FALSE,Day,Day,Day,Day
1,13-04-20 18:48,13-04-20 19:23,45.52641,-122.47999,45.52641,-122.47999,0,At NE 162nd Ave - Accident.,17820, NE Glisan St,R,Portland,Multnomah,OR,97230-6506,US,US/Pacific,KTTD,13-04-20 18:53,66,66,16,30.29,10,NW,8,0,Fair,FALSE,FALSE,FALSE,FALSE,FALSE,FALSE,FALSE,FALSE,FALSE,FALSE,FALSE,FALSE,FALSE,Day,Day,Day,Day
2,01-11-20 4:31,01-11-20 6:52,33.043757,-111.987923,33.043711,-111.99619,0.479,Incident on W BOWLIN RD near N WHITE Expect delays.,18187, N High Lonesome Dr,R,Maricopa,Pinal,AZ,85138,US,US/Mountain,KCGZ,01-11-20 4:56,62,62,31,28.57,10,ENE,6,0,Fair,FALSE,FALSE,FALSE,FALSE,FALSE,FALSE,FALSE,FALSE,FALSE,FALSE,FALSE,FALSE,FALSE,Night,Night,Night,Night
2,20-04-20 16:36,20-04-20 17:22,32.295361,-111.011978,32.295361,-111.011978,0,Accident on La Cholla Blvd at Noreen St.,4830,N La Cholla Blvd,R,Tucson,Pima,AZ,85705-1263,US,US/Mountain,KDMA,20-04-20 16:58,83,83,9,27.1,10,NNW,8,0,Fair,FALSE,FALSE,FALSE,FALSE,FALSE,FALSE,FALSE,FALSE,FALSE,FALSE,FALSE,FALSE,FALSE,Day,Day,Day,Day
2,22-08-17 10:53,22-08-17 11:23,41.256569,-95.940956,41.256569,-95.940956,0,Accident on 19th St Eastbound at Harney St.,373,S 19th St,L,Omaha,Douglas,NE,68102,US,US/Central,KOMA,22-08-17 10:52,71.1,nan,59,30.16,10,North,11.5,nan,Partly Cloudy,TRUE,FALSE,TRUE,FALSE,FALSE,FALSE,FALSE,FALSE,TRUE,FALSE,FALSE,TRUE,FALSE,Day,Day,Day,Day
3,22-05-16 5:32,22-05-16 11:32,40.68459,-73.64304,40.68269,-73.66567,1.193,Between Eagle Ave/Exit 18 and Hempstead Ave/Exit 17 - Accident.,nan,Southern State Pkwy W,R,West Hempstead,Nassau,NY,11552,US,US/Eastern,KJFK,22-05-16 5:51,54,nan,86,29.82,10,North,9.2,0.04,Light Rain,FALSE,FALSE,FALSE,FALSE,TRUE,FALSE,FALSE,FALSE,FALSE,FALSE,FALSE,FALSE,FALSE,Day,Day,Day,Day
2,25-07-16 9:12,25-07-16 9:58,29.849245,-95.411613,29.849245,-95.411613,0,Accident on TX-261 Spur Shepherd Dr at Montgomery Rd.,nan,W Montgomery Rd,R,Houston,Harris,TX,77091,US,US/Central,KMCJ,25-07-16 9:15,87.8,nan,66,29.94,10,Calm,nan,nan,Mostly Cloudy,FALSE,FALSE,FALSE,FALSE,FALSE,FALSE,FALSE,FALSE,FALSE,FALSE,FALSE,TRUE,FALSE,Day,Day,Day,Day
2,29-04-20 21:24,29-04-20 23:17,39.301532,-121.671249,39.301532,-121.671249,0,At Ramsdell Dr - Accident.,3098, Riviera Rd,R,Live Oak,Sutter,CA,95953-9770,US,US/Pacific,KMYV,29-04-20 21:53,68,68,65,29.88,10,SSE,8,0,Fair,FALSE,FALSE,FALSE,FALSE,FALSE,FALSE,FALSE,FALSE,FALSE,FALSE,FALSE,FALSE,FALSE,Night,Night,Night,Day
2,17-03-20 14:27,17-03-20 15:38,34.320664,-118.495922,34.320664,-118.495922,0,At I-210 - Accident.,nan,Foothill Fwy E,R,Sylmar,Los Angeles,CA,91342,US,US/Pacific,KWHP,17-03-20 13:55,50,50,66,28.94,10,N,6,nan,Mostly Cloudy,FALSE,FALSE,FALSE,FALSE,TRUE,FALSE,FALSE,FALSE,FALSE,FALSE,FALSE,FALSE,FALSE,Day,Day,Day,Day
3,09-11-17 8:21,09-11-17 8:50,35.059368,-85.131248,35.059368,-85.131248,0,Left lane blocked due to accident on I-75 Northbound at US-64 Bonny Oaks Dr.,nan,Bonny Oaks Dr,R,Chattanooga,Hamilton,TN,37421,US,US/Eastern,KCHA,09-11-17 7:53,50,nan,93,30.14,5,North,5.8,0,Light Drizzle,FALSE,FALSE,FALSE,FALSE,FALSE,FALSE,FALSE,FALSE,FALSE,FALSE,FALSE,FALSE,FALSE,Day,Day,Day,Day
2,01-04-16 0:28,01-04-16 1:13,34.153442,-118.6521,34.153442,-118.6521,0,Accident on US-101 Westbound at Exit 30 Calabasas Rd. Approach with care.,nan,US-101 N,R,Calabasas,Los Angeles,CA,91302,US,US/Pacific,KVNY,01-04-16 0:51,55.9,nan,72,30.04,10,ESE,4.6,nan,Clear,FALSE,FALSE,FALSE,FALSE,FALSE,FALSE,FALSE,FALSE,FALSE,FALSE,FALSE,FALSE,FALSE,Night,Night,Night,Night
3,14-06-20 20:38,14-06-20 21:07,39.5652,-104.87226,39.5652,-104.87226,0,At County Line Rd/Exit 195 - Accident.,nan,I-25 S,R,Englewood,Douglas,CO,80112,US,US/Mountain,KAPA,14-06-20 20:53,79,79,18,24.11,10,NW,9,0,Mostly Cloudy,FALSE,FALSE,FALSE,FALSE,FALSE,FALSE,FALSE,FALSE,FALSE,FALSE,FALSE,FALSE,FALSE,Night,Day,Day,Day
2,09-02-20 7:43,09-02-20 10:17,44.88001,-93.14115,44.88001,-93.14115,0,Ramp to I-35E Southbound - Vehicle spun around.,nan,I-35E S,R,Saint Paul,Dakota,MN,55120,US,US/Central,KMSP,09-02-20 7:34,17,6,84,29.16,0.25,NNE,9,0.04,Heavy Snow,FALSE,FALSE,FALSE,FALSE,FALSE,FALSE,FALSE,FALSE,FALSE,FALSE,FALSE,FALSE,FALSE,Day,Day,Day,Day
3,25-05-19 16:20,25-05-19 16:46,40.931221,-73.855896,40.931221,-73.855896,0,Right lane blocked due to accident on Cross County Pkwy Eastbound at Exits 4N 5-4N-S 6 Bronx River Pkwy.,nan,Cross County Pkwy E,R,Yonkers,Westchester,NY,10704,US,US/Eastern,KLGA,25-05-19 15:51,68,68,42,30.13,10,SSE,17,0,Mostly Cloudy,FALSE,FALSE,FALSE,FALSE,TRUE,FALSE,FALSE,FALSE,FALSE,FALSE,FALSE,FALSE,FALSE,Day,Day,Day,Day
2,17-09-18 10:59,17-09-18 11:29,43.875922,-95.113021,43.876835,-95.114782,0.108,Between US-71 (East) and Windom - Accident.,nan,Highway 71 N,R,Windom,Cottonwood,MN,56101,US,US/Central,KMWM,17-09-18 10:55,69.8,nan,73,29.94,10,NE,4.6,nan,Scattered Clouds,FALSE,FALSE,FALSE,FALSE,FALSE,FALSE,FALSE,FALSE,FALSE,FALSE,FALSE,FALSE,FALSE,Day,Day,Day,Day
2,02-10-19 9:38,02-10-19 11:10,38.000336,-121.260314,38.000336,-121.260314,0,At N Wilson Way - Accident.,4396, Newton Rd,R,Stockton,San Joaquin,CA,95205-2443,US,US/Pacific,KSCK,02-10-19 9:55,62,62,44,30.02,10,VAR,3,0,Fair,FALSE,FALSE,TRUE,FALSE,FALSE,FALSE,TRUE,FALSE,FALSE,FALSE,FALSE,FALSE,FALSE,Day,Day,Day,Day
2,05-12-17 6:06,05-12-17 12:06,38.79095,-121.29229,38.79667,-121.29794,0.499,At Blue Oaks Blvd - Overturned vehicle. Left lane blocked.,nan,CA-65 N,R,Roseville,Placer,CA,95678,US,US/Pacific,KMCC,05-12-17 6:10,39.2,34.2,61,30.27,10,NNW,6.9,nan,Clear,FALSE,FALSE,FALSE,FALSE,FALSE,FALSE,FALSE,FALSE,FALSE,FALSE,FALSE,FALSE,FALSE,Night,Night,Day,Day
3,17-04-20 15:11,17-04-20 16:11,42.495152,-82.919205,42.495152,-82.919205,0,Lane blocked due to accident on I-94 Eastbound at Exit 229 I-696 Exit 28.,nan,E 11 Mile Rd,R,Roseville,Macomb,MI,48066,US,US/Eastern,KDET,17-04-20 15:05,33,27,89,29.33,0.75,ESE,7,0,Light Snow,FALSE,FALSE,FALSE,FALSE,FALSE,FALSE,FALSE,FALSE,FALSE,FALSE,FALSE,FALSE,FALSE,Day,Day,Day,Day
2,29-08-19 7:26,29-08-19 8:21,37.74219,-121.525634,37.74219,-121.525634,0,At Mountain House Pky - Accident.,nan,I-205 W,R,Tracy,San Joaquin,CA,95304,US,US/Pacific,KSCK,29-08-19 7:55,69,69,68,29.96,10,W,12,0,Fair,FALSE,FALSE,FALSE,FALSE,TRUE,FALSE,FALSE,FALSE,FALSE,FALSE,FALSE,FALSE,FALSE,Day,Day,Day,Day
2,22-01-20 10:52,22-01-20 11:24,34.06514,-118.00026,34.06514,-118.00026,0,At I-10/San Bernardino Fwy - Accident.,nan,I-605 S,R,Baldwin Park,Los Angeles,CA,91706,US,US/Pacific,KEMT,22-01-20 10:53,61,61,64,30.09,10,S,3,0,Mostly Cloudy,FALSE,FALSE,FALSE,FALSE,FALSE,FALSE,FALSE,FALSE,FALSE,FALSE,FALSE,FALSE,FALSE,Day,Day,Day,Day
2,19-06-19 17:55,19-06-19 18:24,33.713829,-112.285217,33.713829,-112.285217,0,Accident on 107th Ave at Happy Valley Pkwy.,nan,N 107th Ave,R,Peoria,Maricopa,AZ,85383,US,US/Mountain,KDVT,19-06-19 17:53,98,98,8,28.19,10,VAR,6,0,Fair,FALSE,FALSE,TRUE,FALSE,FALSE,FALSE,FALSE,FALSE,FALSE,FALSE,FALSE,TRUE,FALSE,Day,Day,Day,Day
3,21-09-18 7:27,21-09-18 8:11,35.459309,-97.491463,35.459309,-97.491463,0,Accident on I-35 Northbound at I-235.,nan,US-62 E,R,Oklahoma City,Oklahoma,OK,73117,US,US/Central,KTIK,21-09-18 7:56,71.2,nan,86,29.96,10,ENE,5.8,nan,Overcast,FALSE,FALSE,FALSE,FALSE,TRUE,FALSE,FALSE,FALSE,FALSE,FALSE,FALSE,FALSE,FALSE,Day,Day,Day,Day
3,21-10-16 6:21,21-10-16 12:21,29.70736,-95.25416,29.70758,-95.25552,0.083,At Goodyear Dr - Accident.,nan,La Porte Fwy W,R,Houston,Harris,TX,77017,US,US/Central,KHOU,21-10-16 5:53,61,nan,70,30.19,10,North,15,nan,Partly Cloudy,FALSE,FALSE,FALSE,FALSE,FALSE,FALSE,FALSE,FALSE,FALSE,FALSE,FALSE,FALSE,FALSE,Night,Night,Night,Day
2,17-02-20 11:59,17-02-20 12:28,33.95966,-81.22747,33.9534,-81.24197,0.937,Between SC-6/Exit 55 and Road 204/Exit 51 - Accident.,nan,I-20 W,R,Lexington,Lexington,SC,29073,US,US/Eastern,KCAE,17-02-20 11:56,51,51,80,29.92,10,CALM,0,0,Mostly Cloudy,FALSE,FALSE,FALSE,FALSE,FALSE,FALSE,FALSE,FALSE,FALSE,FALSE,FALSE,FALSE,FALSE,Day,Day,Day,Day
2,17-11-20 3:48,17-11-20 6:33,35.963348,-79.018662,35.969969,-79.059249,2.315,Near Chapel Hill / Mile Marker 266 Heading West. The right lane is closed near Exit 266 (NC-86).,nan,I-40 W,R,Durham,Orange,NC,27707,US,US/Eastern,KIGX,nan,nan,nan,nan,nan,nan,nan,nan,nan,nan,FALSE,FALSE,FALSE,FALSE,FALSE,FALSE,FALSE,FALSE,FALSE,FALSE,FALSE,FALSE,FALSE,Night,Night,Night,Night
2,31-05-18 16:12,31-05-18 16:42,33.923618,-98.503296,33.923618,-98.503296,0,Accident on Lamar St at 9th St.,1201,N 9th St,L,Wichita Falls,Wichita,TX,76306-6723,US,US/Central,KSPS,31-05-18 15:52,98.1,nan,40,29.67,10,South,15,nan,Clear,FALSE,FALSE,FALSE,FALSE,FALSE,FALSE,FALSE,FALSE,FALSE,FALSE,FALSE,FALSE,FALSE,Day,Day,Day,Day
3,01-11-16 9:09,01-11-16 9:43,34.052891,-117.548149,nan,nan,0.01,Shoulder blocked on exit ramp due to accident on I-15 Southbound at Exit 108 Jurupa St.,nan,Ontario Fwy S,R,Ontario,San Bernardino,CA,91761,US,US/Pacific,KONT,01-11-16 8:53,55,nan,83,30.04,10,Calm,nan,nan,Mostly Cloudy,FALSE,FALSE,FALSE,FALSE,TRUE,FALSE,FALSE,FALSE,FALSE,FALSE,FALSE,FALSE,FALSE,Day,Day,Day,Day
2,05-09-19 5:18,05-09-19 6:32,34.063072,-118.249306,34.063072,-118.249306,0,Right hand shoulder blocked due to accident on US-101 Southbound at Exits 3 3A 3B CA-110.,nan,Hollywood Fwy S,R,Los Angeles,Los Angeles,CA,90012,US,US/Pacific,KCQT,05-09-19 4:52,74,74,68,29.66,10,CALM,0,0,Partly Cloudy,FALSE,FALSE,FALSE,FALSE,FALSE,FALSE,FALSE,FALSE,FALSE,FALSE,FALSE,FALSE,FALSE,Night,Night,Night,Day
2,10-01-17 8:34,10-01-17 14:42,40.820934,-78.012898,40.822368,-77.945541,3.523,At Grays Woods Blvd/Exit 68 - Accident. Lane blocked.,nan,Mount Nittany Expy E,R,Port Matilda,Centre,PA,16870,US,US/Eastern,KUNV,10-01-17 8:25,17.6,nan,86,30.41,0.2,Calm,nan,nan,Snow,FALSE,FALSE,FALSE,FALSE,FALSE,FALSE,FALSE,FALSE,FALSE,FALSE,FALSE,FALSE,FALSE,Day,Day,Day,Day
2,17-08-18 11:31,17-08-18 12:00,40.69675,-111.94854,40.69675,-111.94854,0,At I-215 - Accident. Right lane blocked.,nan,W 3500 S,R,West Valley City,Salt Lake,UT,84119,US,US/Mountain,KU42,17-08-18 11:35,84.6,nan,32,30.24,10,SE,8.1,nan,Clear,FALSE,FALSE,FALSE,FALSE,FALSE,FALSE,FALSE,FALSE,FALSE,FALSE,FALSE,FALSE,FALSE,Day,Day,Day,Day
2,01-09-18 15:50,01-09-18 16:22,35.590382,-78.63269,35.590382,-78.63269,0,Accident on NC-42 at Pinnacle Ridge Rd.,4522,NC Highway 42,R,Raleigh,Wake,NC,27603,US,US/Eastern,KRDU,01-09-18 15:51,78.1,nan,76,30.18,10,NE,18.4,nan,Thunderstorm,FALSE,FALSE,FALSE,FALSE,FALSE,FALSE,FALSE,FALSE,FALSE,FALSE,FALSE,FALSE,FALSE,Day,Day,Day,Day
3,02-06-20 14:13,02-06-20 15:13,43.18084,-77.59918,43.18084,-77.59918,0,At Clifford Ave - Serious accident.,873, Hudson Ave,L,Rochester,Monroe,NY,14621-3741,US,US/Eastern,KROC,02-06-20 13:54,67,67,54,29.26,10,S,12,0,Cloudy,FALSE,FALSE,FALSE,FALSE,FALSE,FALSE,FALSE,FALSE,FALSE,FALSE,FALSE,TRUE,FALSE,Day,Day,Day,Day
2,24-12-19 14:13,24-12-19 15:06,37.756392,-122.148785,37.756392,-122.148785,0,At 98th Ave/Golf Links Rd - Accident.,nan,I-580 E,R,Oakland,Alameda,CA,94605,US,US/Pacific,KOAK,24-12-19 13:53,56,56,53,29.9,10,W,15,0,Cloudy,FALSE,FALSE,FALSE,FALSE,TRUE,FALSE,FALSE,FALSE,FALSE,FALSE,FALSE,FALSE,FALSE,Day,Day,Day,Day
2,30-10-17 9:36,30-10-17 10:06,25.942696,-80.201096,25.942696,-80.201096,0,Accident on FL-860 183rd St at Miami Ave.,1,NE 183rd St,R,Miami,Miami-Dade,FL,33179-4429,US,US/Eastern,KHWO,30-10-17 9:53,62.1,nan,38,30.09,10,NNW,12.7,nan,Clear,FALSE,FALSE,FALSE,FALSE,FALSE,FALSE,FALSE,FALSE,FALSE,FALSE,FALSE,TRUE,FALSE,Day,Day,Day,Day
3,02-08-18 13:34,02-08-18 14:04,38.799801,-77.598946,38.799801,-77.598946,0,Two lanes blocked and left hand shoulder blocked due to accident on I-66 Eastbound at Exits 43A 43A-B 43B US-29 Lee Hwy.,nan,Lee Hwy,R,Gainesville,Prince William,VA,20155,US,US/Eastern,KHEF,02-08-18 13:31,75.2,nan,94,30.11,2.5,WNW,5.8,nan,Overcast,FALSE,FALSE,FALSE,FALSE,FALSE,FALSE,FALSE,FALSE,FALSE,FALSE,FALSE,FALSE,FALSE,Day,Day,Day,Day
2,03-10-20 12:08,03-10-20 22:06,40.070331,-75.151593,40.072052,-75.154613,0.199,Queuing traffic from PA-611/Old York Rd (W Cheltenham Ave) to PA-309/E Upsal St/Ogontz Ave (W Cheltenham Ave) due to accident.,2119, W Cheltenham Ave,R,Elkins Park,Montgomery,PA,19027-1030,US,US/Eastern,KPNE,03-10-20 11:54,63,63,41,30.11,10,CALM,0,0,Fair,FALSE,FALSE,FALSE,FALSE,FALSE,FALSE,FALSE,FALSE,FALSE,FALSE,FALSE,FALSE,FALSE,Day,Day,Day,Day
2,18-04-19 23:44,19-04-19 0:13,39.78436,-105.08864,39.78432,-105.11468,1.383,Between CO-121/Wadsworth Blvd/Exit 269 and Kipling St/Exit 267 - Accident. Left lane blocked.,nan,I-70 W,R,Arvada,Jefferson,CO,80002,US,US/Mountain,KBJC,18-04-19 23:36,50,50,35,24.57,10,E,5,0,Mostly Cloudy,FALSE,FALSE,FALSE,FALSE,FALSE,FALSE,FALSE,FALSE,FALSE,FALSE,FALSE,FALSE,FALSE,Night,Night,Night,Night
2,14-04-19 10:00,14-04-19 11:30,45.664909,-122.434761,45.664909,-122.434761,0,Accident on WA-500 58th St both ways at 232nd Ave.,nan,NE 232nd Ave,R,Vancouver,Clark,WA,98682,US,US/Pacific,KPDX,14-04-19 9:53,47,47,74,30,10,CALM,0,0,Cloudy,FALSE,FALSE,FALSE,FALSE,FALSE,FALSE,FALSE,FALSE,FALSE,FALSE,FALSE,FALSE,FALSE,Day,Day,Day,Day
2,18-11-20 20:54,18-11-20 22:33,34.005801,-118.176035,34.00562,-118.175514,0.032,Incident on E WASHINGTON BLVD near AYERS AVE Drive with caution.,2401, Ayers Ave,R,Commerce,Los Angeles,CA,90040-1036,US,US/Pacific,KCQT,18-11-20 20:52,59,59,83,29.9,10,CALM,0,0,Fair,FALSE,FALSE,FALSE,FALSE,FALSE,FALSE,FALSE,FALSE,FALSE,FALSE,FALSE,TRUE,FALSE,Night,Night,Night,Night
2,11-01-17 11:38,11-01-17 12:08,39.966751,-76.705742,39.966751,-76.705742,0,Multi-vehicle accident on Albemarle St between Edison St and Poplar St.,966,E Poplar St,R,York,York,PA,17403-1825,US,US/Eastern,KTHV,11-01-17 11:53,46.9,nan,68,30.31,10,Calm,nan,nan,Clear,FALSE,FALSE,FALSE,FALSE,FALSE,FALSE,FALSE,FALSE,FALSE,FALSE,FALSE,FALSE,FALSE,Day,Day,Day,Day
2,15-08-19 12:43,15-08-19 14:50,34.753899,-86.740997,34.753899,-86.740997,0,Accident on US-72 Westbound at Hughes Rd.,nan,Hughes Rd,R,Madison,Madison,AL,35758,US,US/Central,KHUA,15-08-19 12:58,89,89,45,29.26,10,NNW,7,0,Fair,FALSE,FALSE,FALSE,TRUE,FALSE,FALSE,FALSE,FALSE,FALSE,FALSE,FALSE,TRUE,FALSE,Day,Day,Day,Day
3,17-01-17 20:49,17-01-17 21:33,33.884048,-118.351929,nan,nan,0.01,Gore point obstructed due to accident on I-405 Southbound at Exit 42A Hawthorne Blvd.,nan,San Diego Fwy S,R,Lawndale,Los Angeles,CA,90260,US,US/Pacific,KHHR,17-01-17 20:53,55,nan,89,30.14,10,Calm,nan,nan,Clear,FALSE,FALSE,FALSE,FALSE,FALSE,FALSE,FALSE,FALSE,FALSE,FALSE,FALSE,FALSE,FALSE,Night,Night,Night,Night
2,27-12-20 5:22,27-12-20 7:51,38.454845,-120.867759,38.454234,-120.867389,0.047,NB 5 MILES JNO OF PLYM. VEH IN DITCH / BAD CELL CONN / LOST CALLER,nan,State Highway 16,R,Plymouth,Amador,CA,95669,US,US/Pacific,KPVF,27-12-20 5:15,41,37,49,27.31,10,ESE,6,0,Fair,FALSE,FALSE,FALSE,FALSE,FALSE,FALSE,FALSE,FALSE,FALSE,FALSE,FALSE,TRUE,FALSE,Night,Night,Night,Night
2,05-08-16 12:51,05-08-16 18:51,34.04821,-118.26597,34.05025,-118.26262,0.238,At 8th St/Exit 22 - Accident.,nan,CA-110 N,R,Los Angeles,Los Angeles,CA,90017,US,US/Pacific,KCQT,05-08-16 12:47,79,nan,60,29.87,10,North,nan,nan,Clear,FALSE,FALSE,FALSE,FALSE,FALSE,FALSE,FALSE,FALSE,FALSE,FALSE,FALSE,FALSE,FALSE,Day,Day,Day,Day
4,20-08-16 1:31,20-08-16 7:31,40.64525,-75.42576,40.63036,-75.47179,2.624,Closed between PA-987/Airport Rd and Fullerton Ave - Road closed due to accident.,nan,US-22 E,R,Bethlehem,Lehigh,PA,18018,US,US/Eastern,KABE,20-08-16 1:51,69.1,nan,84,29.94,10,Calm,nan,nan,Clear,FALSE,FALSE,FALSE,FALSE,TRUE,FALSE,FALSE,FALSE,FALSE,FALSE,FALSE,FALSE,FALSE,Night,Night,Night,Night
2,09-09-16 5:18,09-09-16 11:18,39.01001,-122.05225,39.013157,-122.055101,0.266,At Hillgate Rd - Accident.,nan,I-5 N,R,Arbuckle,Colusa,CA,95912,US,US/Pacific,KMYV,09-09-16 4:53,61,nan,75,29.97,10,Calm,nan,nan,Clear,FALSE,FALSE,FALSE,FALSE,TRUE,FALSE,FALSE,FALSE,FALSE,FALSE,FALSE,FALSE,FALSE,Night,Night,Night,Day
2,30-08-18 16:01,30-08-18 16:30,32.3116,-80.979507,32.3116,-80.979507,0,Accident on SC-141 Argent Blvd at Drivers Way.,100,Argent Blvd,L,Hardeeville,Jasper,SC,29927-4316,US,US/Eastern,KSAV,30-08-18 15:53,88,nan,61,30.08,10,East,12.7,nan,Mostly Cloudy,FALSE,FALSE,FALSE,FALSE,FALSE,FALSE,FALSE,FALSE,FALSE,FALSE,FALSE,FALSE,FALSE,Day,Day,Day,Day
2,28-12-18 6:00,28-12-18 6:30,36.171581,-86.869011,36.171581,-86.869011,0,Accident on Centennial Blvd at TN-155 Briley Pkwy.,nan,Briley Pkwy,R,Nashville,Davidson,TN,37209,US,US/Central,KBNA,28-12-18 5:53,61,nan,81,29.86,10,SW,5.8,nan,Overcast,FALSE,FALSE,FALSE,FALSE,FALSE,FALSE,FALSE,FALSE,FALSE,FALSE,FALSE,FALSE,FALSE,Night,Night,Day,Day
3,21-03-20 12:34,21-03-20 12:49,34.14112,-118.17972,34.14112,-118.17972,0,At Colorado Blvd/Figueroa St - Accident. Center lane blocked.,nan,CA-134 E,R,Pasadena,Los Angeles,CA,91105,US,US/Pacific,KMWS,nan,nan,nan,nan,nan,nan,nan,nan,nan,nan,FALSE,FALSE,FALSE,FALSE,TRUE,FALSE,FALSE,FALSE,FALSE,FALSE,FALSE,FALSE,FALSE,Day,Day,Day,Day
2,28-10-20 3:17,28-10-20 4:31,33.92638,-118.378448,33.92638,-118.378448,0,Lane blocked due to accident on 118th Pl both ways near Aviation Blvd.,5598,W 118th Pl,L,Inglewood,Los Angeles,CA,90304-1032,US,US/Pacific,KHHR,28-10-20 2:53,58,58,53,29.99,10,CALM,0,0,Fair,FALSE,FALSE,FALSE,FALSE,FALSE,FALSE,FALSE,FALSE,FALSE,FALSE,FALSE,FALSE,FALSE,Night,Night,Night,Night
3,14-03-17 22:51,14-03-17 23:21,30.424627,-97.671585,nan,nan,0.01,Accident on I-35 Service Rd Northbound at Exits 246 247 Howard Ln.,nan,I-35 S,R,Pflugerville,Travis,TX,78660,US,US/Central,KEDC,14-03-17 22:55,55.4,nan,63,30.21,10,ESE,3.5,nan,Clear,FALSE,FALSE,FALSE,FALSE,FALSE,FALSE,FALSE,FALSE,FALSE,FALSE,FALSE,FALSE,FALSE,Night,Night,Night,Night
2,07-01-20 7:23,07-01-20 10:02,34.071883,-117.872309,34.071883,-117.872309,0,At Grand Ave/Exit 38A - Accident.,nan,N Grand Ave,R,West Covina,Los Angeles,CA,91791,US,US/Pacific,KPOC,07-01-20 7:47,45,42,53,29.1,10,VAR,5,nan,Fair,FALSE,FALSE,FALSE,FALSE,FALSE,FALSE,FALSE,FALSE,FALSE,FALSE,FALSE,FALSE,FALSE,Day,Day,Day,Day
2,04-11-20 6:24,04-11-20 7:11,44.347912,-88.737572,nan,nan,1.929999948,Lane blocked due to accident on US-45 Northbound between CR-TT and CR-D.,nan,N3098 US Highway 45,L,New London,Outagamie,WI,54961,US,US/Central,KATW,04-11-20 6:45,45,41,66,28.92,10,SSW,7,0,Fair,FALSE,FALSE,FALSE,FALSE,FALSE,FALSE,FALSE,FALSE,FALSE,FALSE,FALSE,FALSE,FALSE,Night,Day,Day,Day
2,17-05-20 16:45,17-05-20 18:31,42.430195,-71.103012,42.430195,-71.103012,0,Accident on I-93 Northbound at Exit 33 MA-28 Fellsway.,nan,I-93 N,R,Medford,Middlesex,MA,2155,US,US/Eastern,KBOS,17-05-20 16:54,61,61,64,30.19,10,E,8,0,Mostly Cloudy,FALSE,FALSE,FALSE,FALSE,FALSE,FALSE,FALSE,FALSE,FALSE,FALSE,FALSE,FALSE,FALSE,Day,Day,Day,Day
2,19-03-18 14:08,19-03-18 20:08,45.58187,-122.67851,45.58775,-122.68072,0.42,At Columbia Blvd/Exit 306 - Accident. Left lane blocked.,nan,I-5 N,R,Portland,Multnomah,OR,97217,US,US/Pacific,KVUO,19-03-18 13:53,54,nan,62,30.2,10,West,8.1,nan,Clear,FALSE,FALSE,FALSE,FALSE,FALSE,FALSE,FALSE,FALSE,FALSE,FALSE,FALSE,FALSE,FALSE,Day,Day,Day,Day
1,20-06-20 2:44,20-06-20 3:29,41.9589,-71.06367,41.96217,-71.11564,2.68,Between RT-24/Exit 7 and Bay St/Exit 9 - Accident. Hard shoulder blocked.,nan,I-495 N,R,Raynham,Bristol,MA,2767,US,US/Eastern,KTAN,20-06-20 2:52,66,66,87,29.99,10,CALM,0,0,Fair,FALSE,FALSE,FALSE,FALSE,FALSE,FALSE,FALSE,FALSE,FALSE,FALSE,FALSE,FALSE,FALSE,Night,Night,Night,Night
2,10-10-19 11:30,10-10-19 12:41,35.375984,-118.931871,35.375984,-118.931871,0,At CA-184/Morning Dr - Accident.,1199, Fairfax Rd,L,Bakersfield,Kern,CA,93306-5709,US,US/Pacific,KBFL,10-10-19 11:54,67,67,19,29.47,10,VAR,3,0,Fair,FALSE,FALSE,FALSE,FALSE,FALSE,FALSE,FALSE,FALSE,FALSE,FALSE,FALSE,FALSE,FALSE,Day,Day,Day,Day
2,15-10-20 14:04,15-10-20 16:07,30.403622,-81.564785,30.362512,-81.553195,2.923,Incident on I-295 SB near S END OF DAMES POINT BRG Drive with caution.,nan,E Beltway S,R,Jacksonville,Duval,FL,32226,US,US/Eastern,KJAX,15-10-20 13:56,81,81,69,29.95,10,N,8,0,Mostly Cloudy,FALSE,FALSE,FALSE,FALSE,FALSE,FALSE,FALSE,FALSE,FALSE,FALSE,FALSE,FALSE,FALSE,Day,Day,Day,Day
2,03-12-19 16:35,03-12-19 17:07,34.201108,-118.473406,34.201108,-118.473406,0,At Sherman Way/Haskell Ave/Exit 66 - Accident.,nan,I-405 N,R,Van Nuys,Los Angeles,CA,91406,US,US/Pacific,KVNY,03-12-19 16:51,63,63,35,29.09,10,N,10,0,Cloudy,FALSE,FALSE,FALSE,FALSE,TRUE,FALSE,FALSE,FALSE,FALSE,FALSE,FALSE,FALSE,FALSE,Day,Day,Day,Day
2,11-01-17 9:17,11-01-17 15:17,38.22317,-122.61118,38.21763,-122.60414,0.541,At Petaluma Blvd - Accident.,nan,Redwood Hwy S,R,Petaluma,Sonoma,CA,94952,US,US/Pacific,KO69,11-01-17 9:15,48.2,nan,93,29.93,10,West,4.6,nan,Mostly Cloudy,FALSE,FALSE,FALSE,FALSE,TRUE,FALSE,FALSE,FALSE,FALSE,FALSE,FALSE,FALSE,FALSE,Day,Day,Day,Day
2,11-10-16 15:32,11-10-16 16:02,47.650143,-122.347412,nan,nan,0.01,Accident on 35th St at Troll Ave.,3501,Troll Ave N,L,Seattle,King,WA,98103-8808,US,US/Pacific,KBFI,11-10-16 15:53,61,nan,48,30.17,10,NW,8.1,nan,Clear,FALSE,FALSE,TRUE,FALSE,FALSE,FALSE,FALSE,FALSE,TRUE,FALSE,FALSE,FALSE,FALSE,Day,Day,Day,Day
2,19-06-20 9:17,19-06-20 11:17,46.21548,-123.86201,46.21548,-123.86201,0,At Astoria Brg/US-30/W Marine Dr - Accident.,nan,Astoria Brg,R,Astoria,Clatsop,OR,97103,US,US/Pacific,KAST,19-06-20 9:04,60,60,86,29.97,10,N,3,0,Fair,FALSE,FALSE,FALSE,FALSE,FALSE,FALSE,FALSE,FALSE,FALSE,FALSE,FALSE,FALSE,FALSE,Day,Day,Day,Day
2,14-05-17 8:28,14-05-17 9:13,25.627335,-80.379433,nan,nan,0.01,Accident on FL-821 Northbound at Exit 16 FL-992 152nd St. On entry ramp.,nan,Florida's Tpke N,R,Miami,Miami-Dade,FL,33157,US,US/Eastern,KTMB,14-05-17 8:05,73.9,nan,91,29.87,7,NW,4.6,0.03,Light Rain,FALSE,FALSE,FALSE,FALSE,FALSE,FALSE,FALSE,FALSE,FALSE,FALSE,FALSE,FALSE,FALSE,Day,Day,Day,Day
2,09-08-17 7:26,09-08-17 13:26,39.924939,-86.586994,39.916138,-86.573604,0.934,At Lizton Rest Area - Accident.,nan,I-74 E,R,Jamestown,Boone,IN,46147,US,US/Eastern,KEYE,09-08-17 7:53,61,nan,87,30.2,7,Calm,nan,nan,Clear,FALSE,FALSE,FALSE,FALSE,FALSE,FALSE,FALSE,FALSE,FALSE,FALSE,FALSE,FALSE,FALSE,Day,Day,Day,Day
2,04-03-20 8:36,04-03-20 9:04,38.918324,-76.955032,38.918324,-76.955032,0,At South Dakota Ave - Accident. Right lane blocked.,nan,New York Ave W,R,Washington,District of Columbia,DC,20018,US,US/Eastern,KCGS,04-03-20 8:28,49,46,40,29.87,10,W,7,0,Fair,FALSE,FALSE,FALSE,FALSE,FALSE,FALSE,FALSE,FALSE,FALSE,FALSE,FALSE,FALSE,FALSE,Day,Day,Day,Day
4,13-07-19 16:14,13-07-19 16:42,43.84918,-84.02081,43.737277,-84.016961,7.734,Closed between Pinconning Rd/Exit 181 and Linwood Rd/Exit 173 - Road closed due to accident.,nan,I-75 S,R,Pinconning,Bay,MI,48650,US,US/Eastern,KIKW,13-07-19 16:17,89,89,44,29.22,10,W,12,0,Partly Cloudy,FALSE,FALSE,FALSE,FALSE,FALSE,FALSE,FALSE,FALSE,FALSE,FALSE,FALSE,FALSE,FALSE,Day,Day,Day,Day
2,21-12-20 23:39,22-12-20 1:36,26.456837,-80.089449,26.457198,-80.089356,0.026,Incident on I-95 NB near EXIT 52 Drive with caution.,nan,I-95 N,R,Delray Beach,Palm Beach,FL,33444,US,US/Eastern,KBCT,21-12-20 23:53,60,60,86,30.12,10,NNW,7,0,Fair,FALSE,FALSE,FALSE,FALSE,TRUE,FALSE,FALSE,FALSE,FALSE,FALSE,FALSE,FALSE,FALSE,Night,Night,Night,Night
3,06-09-16 17:16,06-09-16 17:46,41.224018,-96.043098,41.224018,-96.043098,0,Accident on I-80 Eastbound at Exit 448 84th St.,nan,S 84th St,R,Omaha,Douglas,NE,68124,US,US/Central,KMLE,06-09-16 17:15,90.7,nan,55,29.87,10,SSW,10.4,nan,Scattered Clouds,FALSE,FALSE,FALSE,FALSE,FALSE,FALSE,FALSE,FALSE,FALSE,FALSE,FALSE,FALSE,FALSE,Day,Day,Day,Day
3,02-02-19 17:00,02-02-19 17:44,41.177315,-73.173042,nan,nan,1.120000005,Right lane blocked due to accident on I-95 Governor John Davis Lodge Tpke Northbound between Exit 30 CT-113 Lordship Blvd and Exit 29 Seaview Ave.,nan,Governor John Davis Lodge Tpke,R,Bridgeport,Fairfield,CT,6607,US,US/Eastern,KBDR,02-02-19 16:52,33.1,21.2,59,30.06,10,SW,20.7,nan,Overcast,FALSE,FALSE,FALSE,FALSE,FALSE,FALSE,FALSE,FALSE,FALSE,FALSE,FALSE,FALSE,FALSE,Day,Day,Day,Day
2,02-06-17 19:26,02-06-17 20:04,39.014515,-77.48455,39.014515,-77.48455,0,Accident on VA-625 Waxpool Rd at Ashburn Village Blvd.,43899,Waxpool Rd,R,Ashburn,Loudoun,VA,20147-6917,US,US/Eastern,KJYO,02-06-17 19:35,77,nan,32,30.02,10,North,13.8,nan,Clear,FALSE,FALSE,FALSE,FALSE,FALSE,FALSE,FALSE,FALSE,FALSE,FALSE,FALSE,TRUE,FALSE,Day,Day,Day,Day
3,21-05-19 17:07,21-05-19 18:07,30.464523,-90.917725,30.464523,-90.917725,0,2 right lane blocked due to accident on I-12 Westbound at Exit 12 LA-1026 Juban Rd.,nan,Juban Rd,R,Denham Springs,Livingston,LA,70726,US,US/Central,KBTR,21-05-19 16:53,89,89,52,29.73,10,SSW,16,0,Fair,FALSE,FALSE,FALSE,FALSE,FALSE,FALSE,FALSE,FALSE,FALSE,FALSE,FALSE,FALSE,FALSE,Day,Day,Day,Day
2,14-12-20 19:41,14-12-20 20:41,45.542439,-122.484029,45.547589,-122.548459,3.138,Left lane closed west of 162nd due to crash use caution.,nan,I-84 W,R,Portland,Multnomah,OR,97230,US,US/Pacific,KTTD,14-12-20 19:53,43,39,93,30.23,10,E,6,0,Partly Cloudy,FALSE,FALSE,FALSE,FALSE,FALSE,FALSE,FALSE,FALSE,FALSE,FALSE,FALSE,FALSE,FALSE,Night,Night,Night,Night
2,02-01-20 18:38,02-01-20 19:06,34.40578,-88.9207,34.40708,-88.93918,1.057,At MS-15/MS-30/Exit 64 - Accident.,nan,I-22 W,R,Blue Springs,Union,MS,38828,US,US/Central,KTUP,02-01-20 17:53,57,57,93,29.31,4,E,5,0.22,Rain,FALSE,FALSE,FALSE,FALSE,FALSE,FALSE,FALSE,FALSE,FALSE,FALSE,FALSE,FALSE,FALSE,Night,Night,Night,Night
2,03-05-16 15:46,03-05-16 16:31,38.017952,-121.894058,nan,nan,0.01,Right hand shoulder blocked due to accident on CA-4 Eastbound at CA-4 Exit 23 / Railroad Ave.,nan,CA-4 E,R,Pittsburg,Contra Costa,CA,94565,US,US/Pacific,KCCR,03-05-16 15:53,78.1,nan,37,29.88,10,NW,8.1,nan,Clear,FALSE,FALSE,FALSE,FALSE,FALSE,FALSE,FALSE,FALSE,FALSE,FALSE,FALSE,FALSE,FALSE,Day,Day,Day,Day
3,09-07-18 9:29,09-07-18 10:13,30.456015,-97.666321,30.456015,-97.666321,0,One lane blocked due to accident on I-35 Northbound at Exit 248 Grand Avenue Pkwy.,nan,I-35 N,R,Pflugerville,Travis,TX,78660,US,US/Central,KEDC,09-07-18 9:35,73.4,nan,100,30.21,2.5,Calm,nan,0.03,Light Rain,FALSE,FALSE,FALSE,FALSE,FALSE,FALSE,FALSE,FALSE,FALSE,FALSE,FALSE,FALSE,FALSE,Day,Day,Day,Day
3,22-01-20 15:29,22-01-20 16:29,41.27264,-72.970589,41.27264,-72.970589,0,Right lane blocked due to accident on I-95 Governor John Davis Lodge Tpke Northbound at Exit 42 CT-162 Sawmill Rd.,nan,Governor John Davis Lodge Tpke N,R,West Haven,New Haven,CT,6516,US,US/Eastern,KHVN,22-01-20 15:53,36,29,55,30.4,10,SW,9,0,Fair,FALSE,FALSE,FALSE,FALSE,TRUE,FALSE,FALSE,FALSE,FALSE,FALSE,FALSE,FALSE,FALSE,Day,Day,Day,Day
2,09-09-20 17:32,09-09-20 19:01,45.123852,-93.33902,nan,nan,0.50999999,Accident on exit ramp from MN-610 Eastbound to Noble Pky.,nan,MN-610 E,R,Minneapolis,Hennepin,MN,55443,US,US/Central,KMIC,09-09-20 17:53,46,46,83,29.5,10,ENE,3,0.01,Cloudy,FALSE,FALSE,FALSE,FALSE,FALSE,FALSE,FALSE,FALSE,FALSE,FALSE,FALSE,FALSE,FALSE,Day,Day,Day,Day
2,10-09-19 20:27,10-09-19 21:12,34.557976,-118.132591,34.557976,-118.132591,0,Accident on CA-14 Southbound at Exit 33 Avenue.,nan,Avenue S,R,Palmdale,Los Angeles,CA,93551,US,US/Pacific,KPMD,10-09-19 20:53,64,64,72,27.25,10,SSW,16,0,Fair,FALSE,FALSE,FALSE,FALSE,FALSE,FALSE,FALSE,FALSE,FALSE,FALSE,FALSE,FALSE,FALSE,Night,Night,Night,Day
2,20-03-19 11:29,20-03-19 12:49,39.841164,-75.404449,39.841164,-75.404449,0,Shoulder closed due to accident on I-95 Northbound at Exits 3 3A 3B-A US-322 Conchester Rd.,nan,I-95 S,R,Chester,Delaware,PA,19013,US,US/Eastern,KPHL,20-03-19 11:54,48.9,nan,35,30.4,10,South,10.4,nan,Mostly Cloudy,FALSE,FALSE,FALSE,FALSE,FALSE,FALSE,FALSE,FALSE,FALSE,FALSE,FALSE,FALSE,FALSE,Day,Day,Day,Day
2,18-10-19 14:03,18-10-19 16:20,34.165503,-118.492347,34.165503,-118.492347,0,At US-101/Ventura Fwy/Magnolia Blvd - Accident.,nan,US-101 N,R,Encino,Los Angeles,CA,91436,US,US/Pacific,KVNY,18-10-19 13:51,83,83,18,29.03,10,VAR,3,0,Fair,FALSE,FALSE,FALSE,FALSE,FALSE,FALSE,FALSE,FALSE,FALSE,FALSE,FALSE,FALSE,FALSE,Day,Day,Day,Day
3,19-02-18 5:09,19-02-18 5:37,45.531761,-122.565521,nan,nan,0.839999974,Accident on exit ramp from I-205 Northbound at Exits 21A 21B to I-84 Westbound.,nan,E Portland Fwy S,R,Portland,Multnomah,OR,97220,US,US/Pacific,KPDX,19-02-18 4:53,32,26.4,75,30.06,10,East,5.8,nan,Overcast,FALSE,FALSE,FALSE,FALSE,FALSE,FALSE,FALSE,FALSE,FALSE,FALSE,FALSE,FALSE,FALSE,Night,Night,Night,Night
2,08-09-16 21:29,08-09-16 22:00,38.358604,-121.934029,38.358604,-121.934029,0,Accident on Hawkins Rd at Leisure Town Rd.,6200,Leisure Town Rd,L,Vacaville,Solano,CA,95687-9405,US,US/Pacific,KVCB,08-09-16 21:53,73,nan,44,29.94,10,SSE,4.6,nan,Clear,FALSE,FALSE,FALSE,FALSE,FALSE,FALSE,FALSE,FALSE,FALSE,TRUE,FALSE,FALSE,FALSE,Night,Night,Night,Night
2,15-03-19 20:35,15-03-19 23:08,35.585209,-97.5672,35.585209,-97.5672,0,Accident on 112th St at May Ave.,2898,NW 112th St,L,Oklahoma City,Oklahoma,OK,73120,US,US/Central,KPWA,15-03-19 20:53,44.1,40.8,43,30.43,10,NE,5.8,nan,Clear,FALSE,FALSE,FALSE,FALSE,FALSE,FALSE,FALSE,FALSE,FALSE,FALSE,FALSE,TRUE,FALSE,Night,Night,Night,Day
2,03-08-17 13:39,03-08-17 14:09,27.76623,-82.768204,27.76623,-82.768204,0,Accident on 104th Ave Southbound at Gulf Blvd.,101,104th Ave,R,Treasure Island,Pinellas,FL,33706-4804,US,US/Eastern,KSPG,03-08-17 13:53,89.1,nan,63,30.1,10,WSW,9.2,nan,Partly Cloudy,FALSE,FALSE,TRUE,FALSE,FALSE,FALSE,FALSE,FALSE,TRUE,FALSE,FALSE,FALSE,FALSE,Day,Day,Day,Day
2,11-05-19 23:20,12-05-19 5:26,40.611329,-111.90618,40.60252,-111.904532,0.615,At UT-209/9000/Exit 295 - Accident.,nan,I-15 S,R,Midvale,Salt Lake,UT,84047,US,US/Mountain,KU42,11-05-19 22:54,59,59,46,25.68,10,SSE,6,0,Partly Cloudy,FALSE,FALSE,FALSE,FALSE,FALSE,FALSE,FALSE,FALSE,FALSE,FALSE,FALSE,FALSE,FALSE,Night,Night,Night,Night
2,27-07-17 9:46,27-07-17 10:16,35.846008,-78.836472,35.846008,-78.836472,0,Slow traffic due to accident on NC-54 Chapel Hill Rd both ways at McCrimmon Pkwy.,5600,McCrimmon Pkwy,L,Morrisville,Wake,NC,27560-8678,US,US/Eastern,KRDU,27-07-17 9:51,82,nan,65,30.07,10,WSW,11.5,nan,Mostly Cloudy,FALSE,FALSE,TRUE,FALSE,FALSE,FALSE,FALSE,FALSE,FALSE,FALSE,FALSE,TRUE,FALSE,Day,Day,Day,Day
2,16-04-18 8:32,16-04-18 9:17,33.931194,-117.993202,33.931194,-117.993202,0,Accident on Leffingwell Rd near Santa Gertrudes Ave.,15741,Leffingwell Rd,L,Whittier,Los Angeles,CA,90604-3326,US,US/Pacific,KFUL,16-04-18 8:25,60.1,nan,72,30.01,10,Calm,nan,nan,Mostly Cloudy,FALSE,FALSE,FALSE,FALSE,FALSE,FALSE,FALSE,FALSE,FALSE,FALSE,FALSE,TRUE,FALSE,Day,Day,Day,Day
2,30-03-16 16:55,30-03-16 22:55,40.18096,-74.10131,40.16993,-74.10132,0.762,Ramp to Exit 98 - Accident.,nan,Garden State Pkwy S,R,Neptune,Monmouth,NJ,7753,US,US/Eastern,KBLM,nan,nan,nan,nan,nan,nan,nan,nan,nan,nan,FALSE,FALSE,FALSE,FALSE,FALSE,FALSE,FALSE,FALSE,FALSE,FALSE,FALSE,FALSE,FALSE,Day,Day,Day,Day
2,10-01-17 8:07,10-01-17 8:36,33.544922,-81.677643,nan,nan,0.01,Accident on SC-302 Pine Log Rd at US-78 Trk Rudy Mason Pkwy.,nan,Charleston Hwy,R,Aiken,Aiken,SC,29801,US,US/Eastern,KAIK,10-01-17 8:15,24.8,nan,74,30.57,5,Calm,nan,nan,Haze,FALSE,FALSE,FALSE,FALSE,FALSE,FALSE,FALSE,FALSE,FALSE,FALSE,FALSE,FALSE,FALSE,Day,Day,Day,Day
2,10-01-17 13:17,10-01-17 19:17,37.47018,-121.90886,37.46333,-121.90338,0.561,At Scott Creek Rd - Accident.,nan,I-680 S,R,Fremont,Alameda,CA,94539,US,US/Pacific,KNUQ,10-01-17 12:56,57.9,nan,84,29.9,4,SSE,6.9,0.05,Rain,FALSE,FALSE,FALSE,FALSE,TRUE,FALSE,FALSE,FALSE,FALSE,FALSE,FALSE,FALSE,FALSE,Day,Day,Day,Day
2,13-06-20 18:06,13-06-20 19:01,35.221828,-80.828453,35.221828,-80.828453,0,Lane blocked due to accident on US-74 Eastbound at Exit 242 I-277 Exit 2B.,nan,Brookshire Fwy W,R,Charlotte,Mecklenburg,NC,28204,US,US/Eastern,KCLT,13-06-20 17:52,83,83,37,29.3,10,NNE,12,0,Fair,FALSE,FALSE,FALSE,FALSE,FALSE,FALSE,FALSE,FALSE,FALSE,FALSE,FALSE,FALSE,FALSE,Day,Day,Day,Day
3,04-11-20 16:18,04-11-20 16:48,29.784912,-95.688347,29.784912,-95.688347,0,Right and center lane blocked due to accident on I-10 Westbound at Barker Cypress Rd.,nan,Katy Tollway,R,Houston,Harris,TX,77094,US,US/Central,KSGR,04-11-20 15:53,79,79,44,30.1,10,S,5,0,Fair,FALSE,FALSE,FALSE,FALSE,FALSE,FALSE,FALSE,FALSE,FALSE,FALSE,FALSE,FALSE,FALSE,Day,Day,Day,Day
2,16-12-19 6:47,16-12-19 7:40,44.31172,-93.99379,44.31172,-93.99379,0,At US-169 - Accident.,nan,State Highway 99,R,Saint Peter,Nicollet,MN,56082,US,US/Central,KMKT,16-12-19 6:56,18,10,88,29.06,10,SSW,6,0,Cloudy,FALSE,FALSE,FALSE,FALSE,FALSE,FALSE,FALSE,FALSE,FALSE,FALSE,FALSE,FALSE,FALSE,Night,Night,Day,Day
2,07-08-17 16:20,07-08-17 22:20,32.95829,-97.14342,32.964306,-97.155685,0.824,At N White Chapel Blvd - Accident.,nan,E Northwest Pkwy E,R,Southlake,Tarrant,TX,76092,US,US/Central,KDFW,07-08-17 15:53,90,nan,54,29.87,10,NNE,10.4,nan,Mostly Cloudy,FALSE,FALSE,FALSE,FALSE,FALSE,FALSE,FALSE,FALSE,FALSE,FALSE,FALSE,FALSE,FALSE,Day,Day,Day,Day
4,09-07-18 1:08,09-07-18 7:08,32.71983,-117.11757,32.71681,-117.1197,0.243,Ramp closed to CA-15 - Road closed due to accident.,nan,CA-15 S,R,San Diego,San Diego,CA,92105,US,US/Pacific,KSAN,09-07-18 0:51,75,nan,71,29.93,10,South,4.6,nan,Scattered Clouds,FALSE,FALSE,FALSE,FALSE,FALSE,FALSE,FALSE,FALSE,FALSE,FALSE,FALSE,FALSE,FALSE,Night,Night,Night,Night
3,10-05-20 19:41,10-05-20 20:11,39.26285,-76.56695,39.26285,-76.56695,0,At I-95 - Accident.,4589, Keith Ave,L,Baltimore,Baltimore City,MD,21224,US,US/Eastern,KDMH,10-05-20 19:54,60,nan,42,29.99,nan,nan,nan,0,nan,FALSE,FALSE,FALSE,FALSE,FALSE,FALSE,FALSE,FALSE,FALSE,FALSE,FALSE,FALSE,FALSE,Day,Day,Day,Day
2,24-08-16 7:42,24-08-16 13:42,33.46147,-112.28829,33.46115,-112.29695,0.5,At 107th Ave/Exit 132 - Accident.,nan,Pearl Harbor Memorial Highway,R,Avondale,Maricopa,AZ,85323,US,US/Mountain,KGYR,24-08-16 7:47,84.2,nan,37,30.03,10,North,5.8,nan,Partly Cloudy,FALSE,FALSE,FALSE,FALSE,FALSE,FALSE,FALSE,FALSE,FALSE,FALSE,FALSE,FALSE,FALSE,Day,Day,Day,Day
3,04-11-19 8:33,04-11-19 9:48,40.903866,-74.157867,40.903866,-74.157867,0,Multi-vehicle accident on I-80 Westbound at Exits 58A-B 58B-A 23rd Ave.,1091,Madison Ave,L,Paterson,Passaic,NJ,7513,US,US/Eastern,KTEB,04-11-19 8:51,47,47,52,30.36,10,CALM,0,0,Fair,FALSE,FALSE,FALSE,FALSE,FALSE,FALSE,FALSE,FALSE,FALSE,FALSE,FALSE,FALSE,FALSE,Day,Day,Day,Day
3,13-08-19 18:54,13-08-19 19:23,33.68363,-117.87666,33.68222,-117.87804,0.126,Ramp to CA-55/Costa Mesa Fwy/Exit 9A - Accident. Lane blocked.,nan,CA-55 S,R,Costa Mesa,Orange,CA,92626,US,US/Pacific,KSNA,13-08-19 18:53,74,74,62,29.85,10,SW,7,0,Fair,FALSE,FALSE,FALSE,FALSE,FALSE,FALSE,FALSE,FALSE,FALSE,FALSE,FALSE,FALSE,FALSE,Day,Day,Day,Day
2,16-05-19 15:20,16-05-19 16:20,34.693901,-82.733963,34.693901,-82.733963,0,Accident on Central Rd at Revista Dr.,280,Central Rd,L,Central,Anderson,SC,29630-9606,US,US/Eastern,KCEU,16-05-19 14:54,79,79,47,29.04,10,W,7,0,Light Rain,FALSE,FALSE,FALSE,FALSE,FALSE,FALSE,FALSE,FALSE,FALSE,FALSE,FALSE,FALSE,FALSE,Day,Day,Day,Day
2,16-10-17 5:19,16-10-17 11:19,29.21297,-81.10059,29.22635,-81.10525,0.966,At CR-4019/Lpga Blvd/Exit 265 - Accident.,nan,I-95 N,R,Daytona Beach,Volusia,FL,32114,US,US/Eastern,KDAB,16-10-17 4:53,75,nan,96,29.98,6,Calm,nan,nan,Partly Cloudy,FALSE,FALSE,FALSE,FALSE,FALSE,FALSE,FALSE,FALSE,FALSE,FALSE,FALSE,FALSE,FALSE,Night,Night,Night,Night
3,29-09-16 10:10,29-09-16 16:10,34.82976,-82.29406,34.83478,-82.30251,0.592,At I-85/Exit 36 - Accident.,nan,Golden Strip Fwy N,R,Greenville,Greenville,SC,29615,US,US/Eastern,KGMU,29-09-16 9:53,72,nan,61,29.94,10,ENE,5.8,nan,Partly Cloudy,FALSE,FALSE,FALSE,FALSE,FALSE,FALSE,FALSE,FALSE,FALSE,FALSE,FALSE,FALSE,FALSE,Day,Day,Day,Day
3,25-07-18 11:07,25-07-18 11:36,39.632698,-104.906487,39.632698,-104.906487,0,Accident on I-225 Southbound at Exits 1A 1B I-25.,nan,US-87 S,R,Denver,Denver,CO,80237,US,US/Mountain,KAPA,25-07-18 10:53,73.9,nan,59,30.14,10,North,15,nan,Scattered Clouds,FALSE,FALSE,FALSE,FALSE,FALSE,FALSE,FALSE,FALSE,FALSE,FALSE,FALSE,FALSE,FALSE,Day,Day,Day,Day
3,25-05-18 7:53,25-05-18 13:53,42.26919,-83.2251,42.26769,-83.21807,0.374,Ramp to I-94 Eastbound - Accident.,nan,Southfield Rd,R,Allen Park,Wayne,MI,48101,US,US/Eastern,KDTW,25-05-18 7:53,64.9,nan,63,30,7,SSW,4.6,nan,Mostly Cloudy,FALSE,FALSE,FALSE,FALSE,TRUE,FALSE,FALSE,FALSE,FALSE,FALSE,FALSE,FALSE,FALSE,Day,Day,Day,Day
3,07-05-20 16:36,07-05-20 17:06,39.976933,-75.198631,nan,nan,0,Lane blocked due to accident on I-76 Eastbound at Exit 342 US-30 Girard Ave.,nan,I-76 E,R,Philadelphia,Philadelphia,PA,19131,US,US/Eastern,KPHL,07-05-20 16:54,65,65,22,29.78,10,W,12,0,Fair,FALSE,FALSE,FALSE,FALSE,FALSE,FALSE,FALSE,FALSE,FALSE,FALSE,FALSE,FALSE,FALSE,Day,Day,Day,Day
2,24-11-20 0:31,24-11-20 3:17,38.521811,-78.836011,38.521916,-78.837299,0.07,On Rt. 721 (Longs Pump Rd) in the County of Rockingham in the vicinity of Kratzer Rd; Rt. 753E/W (Rockingham County) motorists can expect delays due to a vehicle crash. All West lanes are closed. All East lanes are closed.,2700, Sipe Ln,R,Linville,Rockingham,VA,22834,US,US/Eastern,KSHD,24-11-20 0:35,34,34,82,29.03,10,CALM,0,0,Cloudy,FALSE,FALSE,FALSE,FALSE,FALSE,FALSE,FALSE,FALSE,FALSE,FALSE,FALSE,FALSE,FALSE,Night,Night,Night,Night
2,15-03-20 12:38,15-03-20 13:29,38.657713,-121.363862,38.657713,-121.363862,0,At I-80-BR/Auburn Blvd - Accident.,nan,I-80 W,R,Sacramento,Sacramento,CA,95841,US,US/Pacific,KMCC,15-03-20 12:45,50,50,87,29.86,7,SW,12,nan,Light Rain Shower,FALSE,FALSE,FALSE,FALSE,FALSE,FALSE,FALSE,FALSE,FALSE,FALSE,FALSE,FALSE,FALSE,Day,Day,Day,Day
3,08-10-18 9:43,08-10-18 10:13,39.105335,-94.709862,39.105335,-94.709862,0,Right lane blocked due to accident on I-70 Westbound at Exit 417 57th St.,nan,US-24 W,R,Kansas City,Wyandotte,KS,66102,US,US/Central,KNKA,08-10-18 9:36,nan,nan,nan,nan,nan,North,nan,nan,nan,FALSE,FALSE,FALSE,FALSE,FALSE,FALSE,FALSE,FALSE,FALSE,FALSE,FALSE,FALSE,FALSE,Day,Day,Day,Day
2,31-10-20 8:12,01-11-20 10:13,37.267,-80.137442,37.266982,-80.137704,0.014,On Rt. 646 in the County of Roanoke in the vicinity of Mayfair Dr; Rt. 852N/S (Roanoke County) motorists can expect delays due to a vehicle crash. All West lanes are closed. All East lanes are closed.,4308, Barley Dr,R,Salem,Roanoke County,VA,24153,US,US/Eastern,KROA,31-10-20 7:54,39,39,86,29.18,10,CALM,0,0,Cloudy,FALSE,FALSE,FALSE,FALSE,FALSE,FALSE,FALSE,FALSE,FALSE,FALSE,FALSE,FALSE,FALSE,Day,Day,Day,Day
2,04-01-20 8:52,04-01-20 10:03,34.036971,-118.43854,34.036971,-118.43854,0,At Olympic Blvd/Pico Blvd/Exit 54 - Accident.,nan,I-405 N,R,Los Angeles,Los Angeles,CA,90064,US,US/Pacific,KSMO,04-01-20 8:51,56,56,60,30.17,10,CALM,0,0,Fair,FALSE,FALSE,FALSE,FALSE,FALSE,FALSE,FALSE,FALSE,FALSE,FALSE,FALSE,FALSE,FALSE,Day,Day,Day,Day
2,24-10-19 21:52,24-10-19 22:22,33.49411,-86.330162,33.49411,-86.330162,0,Accident on US-231 Northbound at Mount Pisgah Dr.,84,Mount Pisgah Dr,L,Cropwell,St. Clair,AL,35054-4415,US,US/Central,KANB,24-10-19 21:53,60,60,64,29.55,10,NNE,6,0,Fair,FALSE,FALSE,FALSE,FALSE,FALSE,FALSE,FALSE,FALSE,FALSE,FALSE,FALSE,FALSE,FALSE,Night,Night,Night,Night
3,31-07-19 17:14,31-07-19 18:44,29.797159,-95.031898,29.797159,-95.031898,0,Left and center lane blocked due to accident on I-10 Westbound at Thompson Rd.,6850,Thompson Rd,R,Baytown,Harris,TX,77521-1334,US,US/Central,KEFD,31-07-19 16:50,90,90,62,29.94,10,SSE,9,nan,Mostly Cloudy,FALSE,FALSE,FALSE,FALSE,FALSE,FALSE,FALSE,FALSE,FALSE,FALSE,FALSE,TRUE,FALSE,Day,Day,Day,Day
2,28-10-20 18:06,28-10-20 23:23,30.337242,-81.669167,30.330234,-81.675079,0.599,Slow traffic on I-95 S - FL-228 - FL-228 W - US-17 S from Kings Rd to exit [352D] due to accident.,nan,FL-228,R,Jacksonville,Duval,FL,32204,US,US/Eastern,KNIP,28-10-20 17:53,83,83,74,29.96,10,ESE,15,0,Mostly Cloudy,FALSE,FALSE,TRUE,FALSE,FALSE,FALSE,FALSE,FALSE,FALSE,FALSE,FALSE,FALSE,FALSE,Day,Day,Day,Day
2,12-11-19 13:46,12-11-19 14:50,35.11739,-81.306679,35.11739,-81.306679,0,Accident on SC-161 at SC-55.,1599,Highway 161 N,L,Clover,York,SC,29710-7418,US,US/Eastern,KAKH,12-11-19 13:54,43,38,68,29.14,10,N,8,0,Cloudy,FALSE,FALSE,FALSE,FALSE,FALSE,FALSE,FALSE,FALSE,FALSE,FALSE,FALSE,FALSE,FALSE,Day,Day,Day,Day
2,24-09-20 7:39,24-09-20 10:22,36.521611,-121.44837,36.523129,-121.46109,0.714,Incident on US-101 NB near 1.3 MI Expect delays.,nan,El Camino Real S,R,Gonzales,Monterey,CA,93926,US,US/Pacific,KSNS,24-09-20 7:53,60,60,86,29.97,9,NNW,5,0,Fair,FALSE,FALSE,FALSE,FALSE,FALSE,FALSE,FALSE,FALSE,FALSE,FALSE,FALSE,FALSE,FALSE,Day,Day,Day,Day
3,22-11-16 20:13,22-11-16 20:42,33.895256,-84.263733,nan,nan,0.01,Queueing traffic and (Three) left lane blocked due to accident on I-285 Eastbound at Exits 32 33B I-85.,nan,GA-407 W,R,Atlanta,DeKalb,GA,30340,US,US/Eastern,KPDK,22-11-16 19:53,43,nan,47,30.3,10,Calm,nan,nan,Clear,FALSE,FALSE,FALSE,FALSE,FALSE,FALSE,FALSE,FALSE,FALSE,FALSE,FALSE,FALSE,FALSE,Night,Night,Night,Night
2,18-10-19 5:46,18-10-19 7:19,44.86555,-93.29896,44.86533,-93.29893,0.015,At I-494/MN-5/Exit 9 - Accident.,nan,W 76th St,R,Minneapolis,Hennepin,MN,55423,US,US/Central,KMSP,18-10-19 5:53,45,38,74,28.91,10,SE,16,0,Fair,FALSE,FALSE,FALSE,FALSE,FALSE,FALSE,FALSE,FALSE,FALSE,FALSE,FALSE,FALSE,FALSE,Night,Night,Night,Night
2,12-09-19 10:18,12-09-19 11:19,32.768566,-96.674858,32.768566,-96.674858,0,Accident on Military Pkwy near Delafield Ln.,3627,Delafield Ln,L,Dallas,Dallas,TX,75227,US,US/Central,KHQZ,12-09-19 9:50,81,81,79,29.64,10,SSE,9,0,Partly Cloudy,FALSE,FALSE,FALSE,FALSE,FALSE,FALSE,FALSE,FALSE,FALSE,FALSE,FALSE,FALSE,FALSE,Day,Day,Day,Day
4,08-12-16 22:32,09-12-16 4:32,25.734321,-80.251918,25.73533,-80.2503,0.122,Closed at SR-976/Bird Rd/30th St - Road closed due to accident.,3588, S Dixie Hwy,L,Miami,Miami-Dade,FL,33133-4342,US,US/Eastern,KMIA,08-12-16 22:53,73.9,nan,87,30.12,7,North,3.5,nan,Overcast,FALSE,FALSE,TRUE,FALSE,FALSE,FALSE,FALSE,FALSE,FALSE,FALSE,FALSE,FALSE,FALSE,Night,Night,Night,Night
2,11-11-20 19:01,11-11-20 21:00,34.698074,-82.305046,34.697688,-82.306045,0.063,Incident on CROSSVINE WAY near BRYDON CT Drive with caution.,101, Brydon Ct,L,Simpsonville,Greenville,SC,29680-6866,US,US/Eastern,KGYH,11-11-20 19:05,73,73,94,28.9,10,CALM,0,0,Light Rain,FALSE,FALSE,FALSE,FALSE,FALSE,FALSE,FALSE,FALSE,FALSE,FALSE,FALSE,FALSE,FALSE,Night,Night,Night,Night
2,19-12-20 6:35,19-12-20 7:50,29.79659,-95.579627,29.799042,-95.579611,0.169,Incident on SHERWOOD FOREST ST near HAZELHURST DR Drive with caution.,1688, Sherwood Forest St,R,Houston,Harris,TX,77043-3602,US,US/Central,KMCJ,19-12-20 6:37,63,63,87,30.04,10,E,6,0,Cloudy,FALSE,FALSE,FALSE,FALSE,FALSE,FALSE,FALSE,FALSE,FALSE,FALSE,FALSE,FALSE,FALSE,Night,Night,Day,Day
2,21-11-20 0:07,21-11-20 1:33,33.651927,-84.497727,33.639197,-84.494337,0.901,Incident on I-285 SB near WASHINGTON RD Center lane blocked. Expect Delays.,nan,GA-407 S,R,Atlanta,Fulton,GA,30344,US,US/Eastern,KATL,21-11-20 0:52,53,53,80,29.31,10,CALM,0,0,Fair,FALSE,FALSE,FALSE,FALSE,FALSE,FALSE,FALSE,FALSE,FALSE,FALSE,FALSE,FALSE,FALSE,Night,Night,Night,Night
3,15-07-16 16:08,15-07-16 17:23,37.948418,-121.300972,37.948418,-121.300972,0,Accident on I-5 Northbound at Exit 472 / CA-4 Exits 65A 65B / CA-4 Ort J Lofthus Fwy Exits 65A-B 66A.,nan,Ort J Lofthus Fwy W,R,Stockton,San Joaquin,CA,95203,US,US/Pacific,KSCK,15-07-16 15:55,98.1,nan,14,29.81,10,WNW,9.2,nan,Clear,FALSE,FALSE,FALSE,FALSE,FALSE,FALSE,FALSE,FALSE,FALSE,FALSE,FALSE,FALSE,FALSE,Day,Day,Day,Day
2,06-10-20 10:18,06-10-20 12:18,38.938068,-94.398103,38.934618,-94.405993,0.486,Incident on I-470 WB near MO-350 Right lane blocked. Expect delays.,nan,I-470 W,R,Lees Summit,Jackson,MO,64086,US,US/Central,KLXT,06-10-20 9:53,63,63,65,28.98,10,WSW,14,0,Fair,FALSE,FALSE,FALSE,FALSE,TRUE,FALSE,FALSE,FALSE,FALSE,FALSE,FALSE,FALSE,FALSE,Day,Day,Day,Day
3,28-05-16 5:13,28-05-16 11:13,33.65761,-117.74564,33.657633,-117.745658,0.002,At Alton Pky - Accident.,nan,Santa Ana Fwy S,R,Irvine,Orange,CA,92618,US,US/Pacific,KSNA,28-05-16 4:53,61,nan,81,29.84,10,ESE,4.6,nan,Overcast,FALSE,FALSE,FALSE,FALSE,FALSE,FALSE,FALSE,FALSE,FALSE,FALSE,FALSE,FALSE,FALSE,Night,Night,Day,Day
2,23-03-20 7:28,23-03-20 8:20,34.03078,-118.21791,34.03078,-118.21791,0,At I-5/Golden State Fwy - Accident.,nan,Santa Ana Fwy S,R,Los Angeles,Los Angeles,CA,90023,US,US/Pacific,KCQT,23-03-20 7:52,57,57,83,29.91,10,CALM,0,0.01,Fair,FALSE,FALSE,FALSE,FALSE,FALSE,FALSE,FALSE,FALSE,FALSE,FALSE,FALSE,FALSE,FALSE,Day,Day,Day,Day
2,19-10-20 7:30,19-10-20 9:00,29.186419,-82.185303,29.186419,-82.185303,0,Accident on FL-40 Silver Springs Blvd at I-75 .,nan,W Silver Springs Blvd,R,Ocala,Marion,FL,34482,US,US/Eastern,KOCF,19-10-20 7:51,71,71,84,29.99,10,NE,6,0,Fair,FALSE,FALSE,FALSE,TRUE,FALSE,FALSE,FALSE,FALSE,FALSE,FALSE,FALSE,TRUE,FALSE,Night,Day,Day,Day
2,17-02-17 7:48,17-02-17 8:17,40.355076,-76.379272,40.355076,-76.379272,0,Accident on North Dr near East Dr.,700,North Dr,L,Lebanon,Lebanon,PA,17046,US,US/Eastern,KMUI,17-02-17 7:58,25.9,19.2,61,29.95,10,Variable,5.8,nan,Partly Cloudy,FALSE,FALSE,FALSE,FALSE,FALSE,FALSE,FALSE,FALSE,FALSE,FALSE,FALSE,FALSE,FALSE,Day,Day,Day,Day
3,23-02-18 6:29,23-02-18 6:58,32.472916,-93.796127,nan,nan,0.519999981,Entry ramp to Jewella Ave Southbound at Exit 14 from I-20 Westbound closed due to accident.,nan,I-20 W,R,Shreveport,Caddo,LA,71109,US,US/Central,KSHV,23-02-18 6:44,nan,nan,nan,nan,nan,North,nan,nan,nan,FALSE,FALSE,FALSE,FALSE,FALSE,FALSE,FALSE,FALSE,FALSE,FALSE,FALSE,FALSE,FALSE,Night,Day,Day,Day
2,20-02-19 14:50,20-02-19 15:20,27.95956,-82.42554,27.96543,-82.43249,0.587,Ramp to 22nd St/Exit 9 - Accident. Left lane blocked.,1674, N 31st St,L,Tampa,Hillsborough,FL,33605,US,US/Eastern,KTPF,20-02-19 14:55,86,nan,58,30.04,10,SW,10.4,nan,Overcast,FALSE,FALSE,TRUE,FALSE,FALSE,FALSE,TRUE,FALSE,FALSE,FALSE,FALSE,FALSE,FALSE,Day,Day,Day,Day
2,01-09-20 14:29,01-09-20 15:15,37.634975,-122.086945,37.634975,-122.086945,0,Right hand shoulder blocked due to accident on I-880 Southbound after Exit 26 Tennyson Rd.,nan,I-880 S,R,Hayward,Alameda,CA,94545,US,US/Pacific,KHWD,01-09-20 14:54,72,72,55,29.91,9,WNW,12,0,Smoke,FALSE,FALSE,FALSE,FALSE,TRUE,FALSE,FALSE,FALSE,FALSE,FALSE,FALSE,FALSE,FALSE,Day,Day,Day,Day
2,01-11-20 22:24,02-11-20 0:26,40.484029,-74.302049,40.489839,-74.301519,0.402,Crash on Garden State Parkway northbound South of Raritan Toll Plaza (Sayreville) left shoulder blocked,nan,Garden State Pkwy N,R,Sayreville,Middlesex,NJ,8872,US,US/Eastern,KLDJ,01-11-20 22:15,47,41,60,29.73,10,NW,12,0,Mostly Cloudy,FALSE,FALSE,FALSE,FALSE,FALSE,FALSE,FALSE,FALSE,FALSE,FALSE,FALSE,FALSE,FALSE,Night,Night,Night,Night
2,13-01-18 13:46,13-01-18 14:30,33.99704,-117.931015,33.99704,-117.931015,0,Right hand shoulder blocked due to accident on CA-60 Westbound at Exit 18 Azusa Ave.,nan,S Azusa Ave,R,Rowland Heights,Los Angeles,CA,91748,US,US/Pacific,KFUL,13-01-18 13:53,86,nan,13,30.04,10,East,11.5,nan,Mostly Cloudy,FALSE,FALSE,FALSE,FALSE,FALSE,FALSE,FALSE,FALSE,FALSE,FALSE,FALSE,FALSE,FALSE,Day,Day,Day,Day
2,27-06-20 23:24,28-06-20 0:36,37.789969,-121.291099,37.789969,-121.291099,0,At Yosemite Ave - Accident.,nan,CA-120 E,R,Lathrop,San Joaquin,CA,95330,US,US/Pacific,KSCK,27-06-20 22:55,70,70,53,29.66,10,WSW,17,0,Fair,FALSE,FALSE,FALSE,FALSE,TRUE,FALSE,FALSE,FALSE,FALSE,FALSE,FALSE,FALSE,FALSE,Night,Night,Night,Night
3,30-01-20 8:15,30-01-20 8:42,39.7174,-86.12572,39.71447,-86.11717,0.497,At Keystone Ave/Exit 107 - Accident. Right lane blocked.,nan,I-65 S,R,Indianapolis,Marion,IN,46227,US,US/Eastern,KIND,30-01-20 7:54,32,32,79,29.34,10,NNE,3,0,Cloudy,FALSE,FALSE,FALSE,FALSE,FALSE,FALSE,FALSE,FALSE,FALSE,FALSE,FALSE,FALSE,FALSE,Day,Day,Day,Day
2,04-12-18 7:05,04-12-18 11:05,45.828438,-122.843275,45.826562,-122.844305,0.139,At NE Westlane Rd/W Lane Rd/Wikstrom Dr - Accident.,57412, Columbia River Hwy,R,Warren,Columbia,OR,97053-9421,US,US/Pacific,KSPB,04-12-18 6:53,30.9,26.2,85,30.28,10,NW,4.6,nan,Clear,FALSE,FALSE,FALSE,FALSE,FALSE,FALSE,FALSE,FALSE,FALSE,FALSE,FALSE,FALSE,FALSE,Night,Day,Day,Day
2,06-04-18 6:12,06-04-18 6:42,28.348536,-81.56498,28.348536,-81.56498,0,Lane blocked due to accident on World Dr at Osceola Pkwy.,nan,World Dr N,R,Orlando,Orange,FL,32830,US,US/Eastern,KISM,06-04-18 5:56,64,nan,84,30.08,10,ENE,3.5,nan,Scattered Clouds,FALSE,FALSE,FALSE,FALSE,FALSE,FALSE,FALSE,FALSE,FALSE,FALSE,FALSE,FALSE,FALSE,Night,Night,Night,Day
2,11-01-19 13:53,11-01-19 14:22,47.463745,-122.293915,47.463745,-122.293915,0,2 left lane blocked due to accident on WA-518 Eastbound at WA-99 International Blvd.,nan,WA-518 W,R,Seattle,King,WA,98158,US,US/Pacific,KSEA,11-01-19 13:53,59,nan,41,29.93,10,East,9.2,nan,Mostly Cloudy,FALSE,FALSE,FALSE,FALSE,FALSE,FALSE,FALSE,FALSE,FALSE,FALSE,FALSE,FALSE,FALSE,Day,Day,Day,Day
2,19-12-18 12:16,19-12-18 12:45,38.23583,-85.61639,38.2377,-85.6293,0.712,At I-264/Watterson Expy/Exit 12 - Accident. Center lane blocked.,nan,I-64 W,R,Louisville,Jefferson,KY,40222,US,US/Eastern,KLOU,19-12-18 11:53,50,nan,50,30.01,10,South,5.8,nan,Clear,FALSE,FALSE,FALSE,FALSE,FALSE,FALSE,FALSE,FALSE,FALSE,FALSE,FALSE,FALSE,FALSE,Day,Day,Day,Day
2,21-10-20 8:30,21-10-20 9:45,26.31321,-80.117207,26.30826,-80.118647,0.353,Incident on I-95 SB near EXIT 41 Drive with caution.,nan,I-95 S,R,Deerfield Beach,Broward,FL,33442,US,US/Eastern,KPMP,21-10-20 8:41,75,75,87,29.96,2,ENE,9,0,Rain,FALSE,FALSE,FALSE,FALSE,FALSE,FALSE,FALSE,FALSE,FALSE,FALSE,FALSE,FALSE,FALSE,Day,Day,Day,Day
2,03-05-16 12:40,03-05-16 18:40,40.689153,-74.3014,40.69006,-74.29448,0.368,Between Monroe St S and CR-31/CR-617/Michigan Ave - Accident.,2534, US Highway 22 E,L,Union,Union,NJ,07083-8508,US,US/Eastern,KEWR,03-05-16 12:51,54,nan,97,29.83,6,NNE,8.1,0,Light Drizzle,FALSE,FALSE,FALSE,FALSE,FALSE,FALSE,FALSE,FALSE,FALSE,FALSE,FALSE,FALSE,FALSE,Day,Day,Day,Day
2,04-03-18 16:44,04-03-18 17:29,35.162048,-80.970139,35.162048,-80.970139,0,Slow traffic due to accident on NC-160 Steele Creek Rd Northbound at Dixie River Rd.,9435,Steele Creek Rd,L,Charlotte,Mecklenburg,NC,28273-3299,US,US/Eastern,KCLT,04-03-18 16:52,60.1,nan,17,30.14,10,NNE,11.5,nan,Partly Cloudy,FALSE,FALSE,FALSE,FALSE,FALSE,FALSE,FALSE,FALSE,TRUE,FALSE,FALSE,FALSE,FALSE,Day,Day,Day,Day
2,09-05-19 14:23,09-05-19 15:08,33.516411,-81.729156,33.516411,-81.729156,0,Accident on Dougherty Rd at SC-302 Silver Bluff Rd.,600,Cardinal Dr,R,Aiken,Aiken,SC,29803-5987,US,US/Eastern,KAIK,09-05-19 14:15,81,81,54,29.54,10,SE,8,nan,Partly Cloudy,FALSE,FALSE,FALSE,FALSE,FALSE,FALSE,FALSE,FALSE,FALSE,FALSE,FALSE,FALSE,FALSE,Day,Day,Day,Day
2,05-03-17 6:54,05-03-17 7:24,34.09943,-117.846367,nan,nan,0.01,Lane blocked due to accident on Covina Blvd at Sunflower Ave.,4800,N Sunflower Ave,R,Covina,Los Angeles,CA,91724-1850,US,US/Pacific,KPOC,05-03-17 6:47,50,nan,87,30.01,10,Calm,nan,nan,Overcast,FALSE,FALSE,FALSE,FALSE,FALSE,FALSE,FALSE,FALSE,FALSE,FALSE,FALSE,TRUE,FALSE,Day,Day,Day,Day
2,17-10-19 1:42,17-10-19 2:34,33.732585,-117.989329,33.732585,-117.989329,0,At CA-39/Beach Blvd/Exit 16 - Accident.,nan,Beach Blvd,R,Huntington Beach,Orange,CA,92647,US,US/Pacific,KSLI,17-10-19 1:58,60,nan,96,29.77,10,nan,nan,0.8,Fair,FALSE,FALSE,FALSE,FALSE,FALSE,FALSE,FALSE,FALSE,FALSE,FALSE,FALSE,FALSE,FALSE,Night,Night,Night,Night
2,03-11-19 18:50,03-11-19 19:22,36.77562,-119.784837,36.77562,-119.784837,0,At Shields Ave - Accident.,nan,CA-41 N,R,Fresno,Fresno,CA,93703,US,US/Pacific,KFAT,03-11-19 18:53,65,65,33,29.61,9,CALM,0,0,Fair,FALSE,FALSE,FALSE,FALSE,FALSE,FALSE,FALSE,FALSE,FALSE,FALSE,FALSE,FALSE,FALSE,Night,Night,Night,Night
2,23-05-20 21:22,23-05-20 23:35,34.034725,-117.974474,34.034725,-117.974474,0,At S Hacienda Blvd - Accident.,106, N Sunset Ave,L,City Of Industry,Los Angeles,CA,91744-3521,US,US/Pacific,KEMT,23-05-20 20:53,68,68,59,29.8,10,W,5,0,Fair,FALSE,FALSE,FALSE,FALSE,FALSE,FALSE,FALSE,FALSE,TRUE,FALSE,FALSE,FALSE,FALSE,Night,Night,Night,Day
2,18-12-19 14:19,18-12-19 15:31,34.259491,-118.437836,34.259491,-118.437836,0,At CA-118/Exit 156A/Exit 156B - Accident.,nan,Golden State Fwy N,R,Pacoima,Los Angeles,CA,91331,US,US/Pacific,KWHP,18-12-19 13:55,59,59,13,28.98,10,WSW,6,nan,Cloudy,FALSE,FALSE,FALSE,FALSE,FALSE,FALSE,FALSE,FALSE,FALSE,FALSE,FALSE,FALSE,FALSE,Day,Day,Day,Day
2,03-10-18 8:12,03-10-18 8:41,39.74004,-84.194923,39.74004,-84.194923,0,Accident on Edwin C Moses Blvd at Stewart St.,nan,W Stewart St,R,Dayton,Montgomery,OH,45417,US,US/Eastern,KDAY,03-10-18 8:12,68,nan,100,30.1,0,SSW,8.1,nan,Overcast,FALSE,FALSE,TRUE,FALSE,FALSE,FALSE,FALSE,FALSE,FALSE,FALSE,FALSE,TRUE,FALSE,Day,Day,Day,Day
2,25-11-20 2:46,25-11-20 5:39,38.432375,-122.715965,38.428725,-122.715185,0.256,NB 101 JSO 3RD/DOWNTOWN. WHI JEEP GCH VS UNK SUV,nan,Redwood Hwy S,R,Santa Rosa,Sonoma,CA,95401,US,US/Pacific,KSTS,25-11-20 2:53,40,40,100,29.99,0.25,CALM,0,0,Fog,FALSE,FALSE,FALSE,FALSE,TRUE,FALSE,FALSE,FALSE,FALSE,FALSE,FALSE,FALSE,FALSE,Night,Night,Night,Night
2,29-07-19 17:41,29-07-19 19:48,37.622681,-77.457741,37.622681,-77.457741,0,Accident on US-1 Brook Rd at Lakeside Ave.,1101,Lakeside Ave,L,Henrico,Henrico,VA,23228,US,US/Eastern,KOFP,29-07-19 17:54,91,91,35,29.78,10,SSW,7,0,Fair,FALSE,FALSE,FALSE,FALSE,FALSE,FALSE,FALSE,FALSE,FALSE,FALSE,FALSE,TRUE,FALSE,Day,Day,Day,Day
2,26-11-19 9:05,26-11-19 9:50,39.865639,-88.972939,39.865639,-88.972939,0,Right lane closed due to accident on IL-48 Southbound at Ravina Park Rd.,2197,N Oakland Ave,L,Decatur,Macon,IL,62526-3129,US,US/Central,KDEC,26-11-19 8:54,42,37,85,29.05,10,E,9,0,Cloudy,FALSE,FALSE,FALSE,FALSE,FALSE,FALSE,FALSE,FALSE,FALSE,FALSE,FALSE,TRUE,FALSE,Day,Day,Day,Day
2,13-11-17 6:45,13-11-17 7:15,35.423435,-97.618668,35.423435,-97.618668,0,Accident on OK-152 Airport Rd Eastbound at MacArthur Blvd.,nan,S MacArthur Blvd,R,Oklahoma City,Oklahoma,OK,73179,US,US/Central,KOKC,13-11-17 6:52,46.9,nan,86,30.37,10,East,5.8,nan,Mostly Cloudy,FALSE,FALSE,FALSE,FALSE,FALSE,FALSE,FALSE,FALSE,FALSE,FALSE,FALSE,FALSE,FALSE,Night,Day,Day,Day
2,30-05-19 15:18,30-05-19 16:03,37.696018,-122.115387,37.696018,-122.115387,0,Accident on 163rd Ave at CA-185 14th St.,16300,E 14th St,R,San Leandro,Alameda,CA,94578-3110,US,US/Pacific,KHWD,30-05-19 14:54,61,61,67,29.88,10,WNW,17,0,Partly Cloudy,FALSE,FALSE,TRUE,FALSE,FALSE,FALSE,FALSE,FALSE,TRUE,FALSE,FALSE,TRUE,FALSE,Day,Day,Day,Day
2,03-07-18 7:24,03-07-18 7:54,39.651718,-86.054031,39.651718,-86.054031,0,Accident on Stop 11 Rd at Combs Rd.,6450,E Stop 11 Rd,L,Indianapolis,Marion,IN,46237-9734,US,US/Eastern,KIND,03-07-18 6:54,73.9,nan,91,30.08,7,ESE,4.6,nan,Mostly Cloudy,FALSE,FALSE,FALSE,TRUE,FALSE,FALSE,FALSE,FALSE,FALSE,FALSE,FALSE,FALSE,FALSE,Day,Day,Day,Day
2,22-07-20 13:40,22-07-20 14:40,39.327599,-77.582863,39.327599,-77.582863,0,Accident on MD-464 Point Of Rocks Rd at Olive School Rd.,3501,Olive School Rd,R,Knoxville,Frederick,MD,21758-8916,US,US/Eastern,KFDK,22-07-20 13:47,93,93,46,29.68,7,CALM,0,0,Partly Cloudy,FALSE,FALSE,FALSE,FALSE,FALSE,FALSE,FALSE,FALSE,FALSE,FALSE,FALSE,FALSE,FALSE,Day,Day,Day,Day
3,31-10-19 13:52,31-10-19 17:33,45.041573,-93.28492,45.041573,-93.28492,0,Lane blocked due to accident on I-94 Westbound at Exit 226 Lyndale Ave.,nan,I-94 E,R,Minneapolis,Hennepin,MN,55430,US,US/Central,KMIC,31-10-19 13:53,31,31,54,29.11,10,CALM,0,0,Fair,FALSE,FALSE,FALSE,FALSE,FALSE,FALSE,FALSE,FALSE,FALSE,FALSE,FALSE,FALSE,FALSE,Day,Day,Day,Day
2,01-09-17 5:21,01-09-17 11:21,34.061809,-118.457189,34.05125,-118.44937,0.856,At Wilshire Blvd/Exit 55 - Accident.,nan,San Diego Fwy S,R,Los Angeles,Los Angeles,CA,90049,US,US/Pacific,KSMO,01-09-17 5:51,72,nan,84,29.77,10,Calm,nan,nan,Clear,FALSE,FALSE,FALSE,FALSE,FALSE,FALSE,FALSE,FALSE,FALSE,FALSE,FALSE,FALSE,FALSE,Night,Night,Night,Day
2,24-12-20 7:53,24-12-20 9:54,41.580649,-72.899661,41.586809,-72.899241,0.426,Stationary traffic on I-84 E from CT-10/Exit 29 (I-84) to Marion Ave/Exit 30 (I-84) due to accident.,nan,I-84 E,R,Plantsville,Hartford,CT,6479,US,US/Eastern,KMMK,24-12-20 7:53,33,33,85,30.1,10,CALM,0,0,Mostly Cloudy,FALSE,FALSE,FALSE,FALSE,FALSE,FALSE,FALSE,FALSE,FALSE,FALSE,FALSE,FALSE,FALSE,Day,Day,Day,Day
2,18-09-18 7:49,18-09-18 8:34,44.736202,-119.191689,44.736202,-119.191689,0,Lane blocked due to accident on OR-402 both ways at Durst Rd.,nan,Borgerson Rd,R,Monument,Grant,OR,97864,US,US/Pacific,KGCD,18-09-18 7:55,46,nan,70,30.07,10,Calm,nan,nan,Clear,FALSE,FALSE,FALSE,FALSE,FALSE,FALSE,FALSE,FALSE,FALSE,FALSE,FALSE,FALSE,FALSE,Day,Day,Day,Day
2,31-03-20 6:45,31-03-20 10:45,43.04277,-124.12115,43.04277,-124.12115,0,At Guerin Ln - Accident.,14542, Highway 42,R,Myrtle Point,Coos,OR,97458-7809,US,US/Pacific,KOTH,31-03-20 6:56,46,40,93,30.11,2,WNW,15,0.05,Light Rain,FALSE,FALSE,FALSE,FALSE,FALSE,FALSE,FALSE,FALSE,FALSE,FALSE,FALSE,FALSE,FALSE,Night,Day,Day,Day
2,18-04-19 8:41,18-04-19 9:11,26.46674,-80.08927,26.45726,-80.08962,0.655,At SR-806/Atlantic Ave/Exit 52 - Accident. Left lane blocked.,nan,I-95 S,R,Delray Beach,Palm Beach,FL,33444,US,US/Eastern,KBCT,18-04-19 8:53,81,81,69,29.99,9,SE,14,0,Fair,FALSE,FALSE,FALSE,FALSE,FALSE,FALSE,FALSE,FALSE,FALSE,FALSE,FALSE,FALSE,FALSE,Day,Day,Day,Day
2,20-12-18 12:54,20-12-18 13:21,35.304,-80.84886,35.343699,-80.848148,2.743,Between US-21/Sunset Rd/Exit 16 and Harris Blvd/Reames Rd/Exit 18 - Accident. Left lane blocked.,nan,US-21 N,R,Charlotte,Mecklenburg,NC,28269,US,US/Eastern,KJQF,20-12-18 12:50,48.2,nan,100,29.75,1,NE,5.8,nan,Rain,FALSE,FALSE,FALSE,FALSE,FALSE,FALSE,FALSE,FALSE,FALSE,FALSE,FALSE,FALSE,FALSE,Day,Day,Day,Day
2,09-04-20 14:17,09-04-20 14:32,33.89956,-117.47298,33.89956,-117.47298,0,Ramp to La Sierra Ave - Accident. Hard shoulder blocked.,nan,La Sierra Ave,R,Riverside,Riverside,CA,92503,US,US/Pacific,KRAL,09-04-20 14:20,51,51,86,29.22,1,WSW,5,0.1,Heavy Rain,FALSE,FALSE,TRUE,FALSE,FALSE,FALSE,FALSE,FALSE,FALSE,FALSE,FALSE,TRUE,FALSE,Day,Day,Day,Day
2,08-03-20 0:35,08-03-20 1:48,38.008226,-121.871205,38.008226,-121.871205,0,At Loveridge Rd - Accident.,nan,E Leland Rd,R,Pittsburg,Contra Costa,CA,94565,US,US/Pacific,KCCR,08-03-20 0:53,45,45,86,29.92,10,CALM,0,0,Fair,FALSE,FALSE,FALSE,FALSE,FALSE,FALSE,FALSE,FALSE,FALSE,FALSE,FALSE,TRUE,FALSE,Night,Night,Night,Night
2,27-10-20 18:41,27-10-20 20:56,28.285931,-80.608664,28.28503,-80.608161,0.069,Incident on S ORLANDO AVE near JULEP DR Expect delays.,2094, S Orlando Ave,R,Cocoa Beach,Brevard,FL,32931-2240,US,US/Eastern,KCOF,27-10-20 19:25,81,81,74,30.05,10,E,10,0,Fair,FALSE,FALSE,FALSE,FALSE,FALSE,FALSE,FALSE,FALSE,FALSE,FALSE,FALSE,FALSE,FALSE,Night,Day,Day,Day
2,05:00.0,30:00.0,42.385137,-83.280821,42.385475,-83.259075,1.11,Slow traffic on I-96 E - Edward J Jeffries Fwy - Rosa Parks Memorial Hwy - W Jeffries Fwy E from Beech Daly Rd/Exit 178 (I-96) to I-96 Local/Outer Dr/Exit 180 (I-96) due to accident.,nan,Fenton,R,Redford,Wayne,MI,48239,US,US/Eastern,KDTW,24-12-20 21:53,23,14,63,29.08,10,NW,8,0,Cloudy,FALSE,FALSE,FALSE,FALSE,FALSE,FALSE,FALSE,FALSE,FALSE,FALSE,FALSE,FALSE,FALSE,Night,Night,Night,Night
3,31-01-18 18:05,31-01-18 18:34,37.620403,-122.425995,nan,nan,0,#3 lane blocked due to accident on I-280 Southbound near Crystal Springs Rd.,nan,I-280 S,R,San Bruno,San Mateo,CA,94066,US,US/Pacific,KSFO,31-01-18 17:56,59,nan,62,30.04,10,West,8.1,nan,Mostly Cloudy,FALSE,FALSE,FALSE,FALSE,TRUE,FALSE,FALSE,FALSE,FALSE,FALSE,FALSE,FALSE,FALSE,Night,Night,Day,Day
2,07-10-20 14:59,07-10-20 16:28,33.908318,-117.882774,33.908318,-117.882774,0,Two lanes blocked and HOV lane blocked due to accident on CA-57 Southbound at Exit 9 CA-90 Imperial Hwy.,nan,CA-57 S,R,Fullerton,Orange,CA,92835,US,US/Pacific,KFUL,07-10-20 14:53,81,81,45,29.75,7,S,7,0,Fair,FALSE,FALSE,FALSE,FALSE,FALSE,FALSE,FALSE,FALSE,FALSE,FALSE,FALSE,FALSE,FALSE,Day,Day,Day,Day
2,30-07-18 16:40,30-07-18 22:40,44.144381,-69.925377,44.1445,-69.925108,0.016,At West Gardiner Toll Plaza - Accident.,nan,I-95 N,R,Litchfield,Kennebec,ME,4350,US,US/Eastern,KAUG,30-07-18 16:53,78.1,nan,54,30.09,10,South,8.1,nan,Clear,FALSE,FALSE,FALSE,FALSE,FALSE,FALSE,FALSE,FALSE,FALSE,FALSE,FALSE,FALSE,FALSE,Day,Day,Day,Day
2,10-10-17 8:29,10-10-17 9:28,44.030651,-92.488159,nan,nan,2.460000038,Accident on US-14 Eastbound from County Hwy-22 Circle Dr to US-52.,nan,US-52 N,R,Rochester,Olmsted,MN,55901,US,US/Central,K9MN,10-10-17 8:32,39.2,nan,75,30.32,10,Calm,nan,nan,Clear,FALSE,FALSE,FALSE,FALSE,FALSE,FALSE,FALSE,FALSE,FALSE,FALSE,FALSE,FALSE,FALSE,Day,Day,Day,Day
2,20-12-20 15:21,20-12-20 16:35,35.496719,-97.601158,35.496719,-97.601158,0,Accident on Meridian Ave at 26th St.,4496,NW 26th St,L,Oklahoma City,Oklahoma,OK,73127-1904,US,US/Central,KPWA,20-12-20 14:53,57,57,39,28.66,10,W,8,0,Fair,FALSE,FALSE,FALSE,FALSE,FALSE,FALSE,FALSE,FALSE,FALSE,FALSE,FALSE,FALSE,FALSE,Day,Day,Day,Day
2,06-11-20 22:06,07-11-20 3:42,40.817029,-73.836497,40.789087,-73.819329,2.129,Stationary traffic on Hutchinson River Pkwy S - I-678 S from Lafayette Ave exit [18] to Cross Is Pkwy S exit [16] due to accident.,nan,Bronx Whitestone Brg S,R,Bronx,Bronx,NY,10465,US,US/Eastern,KLGA,06-11-20 21:51,65,65,45,30.21,10,SW,7,0,Fair,FALSE,FALSE,FALSE,FALSE,FALSE,FALSE,FALSE,FALSE,FALSE,FALSE,FALSE,FALSE,FALSE,Night,Night,Night,Night
3,31-01-18 7:25,31-01-18 8:25,33.994858,-80.958282,33.994858,-80.958282,0,Accident on I-77 Northbound at Exit 10 Fort Jackson Blvd.,nan,Fort Jackson Blvd,R,Columbia,Richland,SC,29209,US,US/Eastern,KCUB,31-01-18 7:53,27,nan,89,30.43,10,Calm,nan,nan,Clear,FALSE,FALSE,FALSE,FALSE,FALSE,FALSE,FALSE,FALSE,FALSE,FALSE,FALSE,FALSE,FALSE,Day,Day,Day,Day
2,25-10-18 18:40,25-10-18 19:10,41.597691,-93.718437,41.597691,-93.718437,0,Accident on 73rd St at Buffalo Rd.,1036,73rd St,L,Windsor Heights,Polk,IA,50324,US,US/Central,KDSM,25-10-18 18:54,50,nan,63,29.97,10,East,8.1,0,Light Rain,FALSE,FALSE,FALSE,FALSE,FALSE,FALSE,FALSE,FALSE,FALSE,FALSE,FALSE,TRUE,FALSE,Night,Day,Day,Day
2,29-04-19 15:22,29-04-19 16:37,35.557968,-97.638351,35.557968,-97.638351,0,Accident on Rockwell Ave at OK-3 Expressway St.,nan,N Rockwell Ave,R,Oklahoma City,Oklahoma,OK,73132,US,US/Central,KPWA,29-04-19 15:33,65,65,90,28.53,9,N,16,0,Cloudy,FALSE,FALSE,FALSE,FALSE,FALSE,FALSE,FALSE,FALSE,FALSE,FALSE,FALSE,TRUE,FALSE,Day,Day,Day,Day
3,14-05-19 21:25,14-05-19 22:25,33.461964,-112.151688,33.461964,-112.151688,0,Two lanes blocked due to accident on I-10 Westbound at Exit 140 43rd Ave.,nan,I-10 W,R,Phoenix,Maricopa,AZ,85009,US,US/Mountain,KPHX,14-05-19 21:51,93,93,15,28.61,10,WNW,8,0,Partly Cloudy,FALSE,FALSE,FALSE,FALSE,FALSE,FALSE,FALSE,FALSE,FALSE,FALSE,FALSE,FALSE,FALSE,Night,Night,Night,Night
2,23-04-18 7:36,23-04-18 13:36,37.64955,-122.45233,37.64955,-122.45233,0,At Westborough Blvd - Accident. Left lane blocked.,nan,I-280 S,R,South San Francisco,San Mateo,CA,94080,US,US/Pacific,KSFO,23-04-18 7:56,55.9,nan,75,29.99,9,SW,5.8,nan,Mostly Cloudy,FALSE,FALSE,FALSE,FALSE,FALSE,FALSE,FALSE,FALSE,FALSE,FALSE,FALSE,FALSE,FALSE,Day,Day,Day,Day
3,17-01-19 9:27,17-01-19 9:56,40.654079,-74.007675,40.654079,-74.007675,0,Accident on I-278 Gowanus Expy Eastbound at 29th St.,997,3rd Ave,R,Brooklyn,Kings,NY,11232-2414,US,US/Eastern,KJRB,17-01-19 9:56,30.9,27.5,57,30.43,10,Variable,3.5,nan,Clear,FALSE,FALSE,TRUE,FALSE,TRUE,FALSE,TRUE,FALSE,FALSE,FALSE,FALSE,FALSE,FALSE,Day,Day,Day,Day
2,12-08-20 7:16,12-08-20 8:16,36.34705,-86.87468,36.34705,-86.87468,0,Accident on Greenbrier Rd at US-431 Whites Creek Pike.,7699,Whites Creek Pike,L,Joelton,Davidson,TN,37080-8643,US,US/Central,KBNA,12-08-20 6:53,78,78,84,29.39,8,NNE,5,0,Partly Cloudy,FALSE,FALSE,FALSE,FALSE,FALSE,FALSE,FALSE,FALSE,FALSE,FALSE,FALSE,FALSE,FALSE,Day,Day,Day,Day
2,17-12-20 22:50,18-12-20 0:29,30.466084,-97.844037,30.463711,-97.843937,0.164,Incident on ANDERSON MILL RD near DIES RANCH RD Drive with caution.,nan,Anderson Mill Rd,R,Cedar Park,Travis,TX,78613,US,US/Central,KRYW,17-12-20 22:55,44,39,59,28.93,10,SSE,8,0,Fair,FALSE,FALSE,FALSE,FALSE,FALSE,FALSE,FALSE,FALSE,FALSE,FALSE,FALSE,TRUE,FALSE,Night,Night,Night,Night
